offer_id;lat;lon;bfs_number;bfs_name
7324420;47.43437576293945;8.859333038330078;228;Turbenthal
7512768;46.85032653808594;7.200490951538086;2293;Düdingen
7512034;46.38659286499024;6.204861640930176;5716;Eysins
7512728;47.54240798950195;7.873130321502685;4263;Zeiningen
7490242;47.067474365234375;7.302119731903076;306;Lyss
7512188;47.19426345825195;8.712209701538086;1323;Wollerau
7512184;46.882598876953125;8.635674476623535;1201;Altdorf (UR)
7512142;46.96356201171875;7.459847927093506;351;Bern
7511265;47.51556396484375;7.69475793838501;2831;Pratteln
7511230;46.46551513671875;6.901701927185059;5892;Blonay - Saint-Légier
7511828;47.03250503540039;7.011710166931152;6451;Cornaux
7511730;47.32435989379883;8.146316528320312;4134;Dürrenäsch
7511638;47.39101028442383;8.747475624084473;172;Fehraltorf
7510626;47.671531677246094;9.068697929382324;4646;Ermatingen
7407798;46.00469207763672;8.961973190307617;5192;Lugano
7511040;47.41157531738281;8.527688026428223;261;Zürich
7452216;47.22242736816406;8.8408842086792;3340;Rapperswil-Jona
7355685;46.759037017822266;7.619719982147217;942;Thun
7509998;47.50523376464844;8.551369667053223;51;Bachenbülach
7450524;46.24260330200195;7.306580543518066;6023;Conthey
7487570;47.41009521484375;7.126341342926025;6784;Courgenay
7493778;47.70462417602539;8.805500984191895;2963;Ramsen
7467442;47.34682083129883;8.580924987792969;161;Zollikon
7427995;46.44197082519531;6.896000862121582;5886;Montreux
7510237;47.48398971557617;7.752282619476318;2829;Liestal
7510248;47.00352096557617;8.926657676696777;1632;Glarus
7510212;46.970733642578125;7.476161003112793;362;Ittigen
7509426;47.4129753112793;8.268455505371094;4033;Mellingen
7509715;47.27652359008789;8.837470054626465;113;Dürnten
7509404;46.78390884399414;8.157044410705566;1405;Lungern
7510150;47.43038940429688;8.34878921508789;4030;Killwangen
7510044;46.80977630615234;9.84455680847168;3851;Davos
7503206;47.50811767578125;8.698348999023438;230;Winterthur
7509999;47.24796676635742;8.462939262390137;9;Mettmenstetten
7510025;47.32483673095703;8.469918251037598;3;Bonstetten
7509956;47.51092147827149;7.543394088745117;2771;Oberwil (BL)
7509943;47.26927947998047;9.120625495910645;3352;Ebnat-Kappel
7305781;47.427371978759766;9.317054748535156;3442;Gaiserwald
7509887;46.186920166015625;6.122140884399414;6628;Lancy
7496116;47.20160675048828;7.5354084968566895;2601;Solothurn
7509768;47.25997924804688;8.598672866821289;295;Horgen
6900996;46.799903869628906;9.397051811218262;3723;Rhäzüns
7509758;46.44334030151367;6.887895584106445;5886;Montreux
6792037;47.27073287963867;8.65638542175293;156;Meilen
7509700;47.2882194519043;7.707026958465576;2407;Oensingen
7504402;47.19110870361328;8.702042579650879;1323;Wollerau
7416516;47.57933044433594;7.595460414886475;2701;Basel
7509669;46.462493896484375;6.349050521850586;5861;Rolle
7307922;47.00214385986328;7.270676612854004;309;Radelfingen
7509581;47.48414993286133;8.699139595031738;230;Winterthur
7509538;47.6457633972168;9.16115379333496;4671;Kreuzlingen
7509483;46.629180908203125;7.0597662925720215;2125;Bulle
6467415;47.12709045410156;8.245790481567383;1037;Rain
7421929;46.46651077270508;6.841388702392578;5890;Vevey
7509389;47.069583892822266;8.364933013916016;1051;Adligenswil
7509365;47.32169723510742;9.415101051330566;3112;Schwende-Rüte
7416895;46.20241165161133;6.156688213348389;6621;Genève
7509285;47.29946899414063;7.77032995223999;2405;Niederbuchsiten
7509188;46.51056671142578;6.556640148162842;5648;Saint-Sulpice (VD)
7509078;47.4998893737793;9.435410499572754;3217;Steinach
7508937;47.316062927246094;8.524923324584961;131;Adliswil
7508976;47.30225372314453;7.905200481414795;4282;Rothrist
7508913;47.352638244628906;7.962329387664795;2572;Däniken
7508873;46.46377182006836;6.2069268226623535;5702;Arzier-Le Muids
7508883;46.62423706054688;7.077680587768555;2125;Bulle
7508679;47.53224563598633;7.981865882873535;4161;Eiken
7508722;47.22211456298828;8.660393714904785;293;Wädenswil
7508434;47.39164352416992;8.48184871673584;261;Zürich
7063476;47.17507553100586;7.359205722808838;387;Lengnau (BE)
7498075;46.56378555297852;6.59220027923584;5586;Lausanne
7508206;46.772499084472656;7.577742099761963;944;Uetendorf
7261136;47.094425201416016;8.270522117614746;1040;Rothenburg
7507928;47.5635871887207;9.046104431152344;4881;Amlikon-Bissegg
7507847;47.49209976196289;8.555036544799805;72;Winkel
7507631;46.47667694091797;6.23431396484375;5731;Le Vaud
7507733;47.33238983154297;8.024931907653809;4276;Kölliken
7507655;47.53580093383789;8.74094009399414;227;Seuzach
7507500;47.18374252319336;7.979113578796387;1127;Egolzwil
7418259;47.29365158081055;7.727414131164551;2407;Oensingen
7428814;46.47600936889648;6.899766445159912;5892;Blonay - Saint-Légier
7506992;47.237403869628906;7.830101490020752;337;Roggwil (BE)
7415123;46.02381134033203;7.752415657043457;6300;Zermatt
7414508;46.53376770019531;6.540895938873291;5633;Echandens
7505473;47.15703582763672;9.479875564575195;3271;Buchs (SG)
7506527;47.39154815673828;8.69400691986084;199;Volketswil
7499124;47.28098678588867;7.924751281738281;4285;Strengelbach
7350961;46.20588302612305;6.1387457847595215;6621;Genève
7437502;47.238887786865234;8.82303237915039;3340;Rapperswil-Jona
7504609;47.03221130371094;8.399726867675781;1069;Weggis
7504056;47.34046173095703;8.400111198425293;4074;Oberwil-Lieli
7328089;47.32931518554688;8.80539608001709;121;Wetzikon (ZH)
7041639;46.90052795410156;7.550124168395996;623;Rubigen
7501967;47.58436965942383;8.139054298400879;4176;Schwaderloch
7484770;47.52539443969727;9.037678718566896;4711;Affeltrangen
7191131;46.51074600219727;6.560527801513672;5648;Saint-Sulpice (VD)
7503280;47.05097579956055;8.585723876953125;1374;Steinerberg
7503178;47.52544784545898;7.570532321929932;2767;Bottmingen
6713235;47.26997375488281;8.203201293945312;4131;Beinwil am See
7502946;47.36670684814453;7.956192493438721;2497;Obergösgen
7503014;47.132598876953125;7.543874263763428;533;Bätterkinden
7502925;47.46720123291016;8.51368522644043;92;Oberglatt
7489031;46.96787643432617;6.859399795532227;6416;Milvignes
7502747;46.5151596069336;6.687925815582275;5606;Lutry
7502214;47.12444686889648;9.491602897644045;3275;Sevelen
7497048;46.39980697631836;6.224734306335449;5724;Nyon
7501625;47.46681213378906;7.84629487991333;2846;Gelterkinden
7414340;45.856388092041016;9.03864288330078;5269;Breggia
7468881;47.55087661743164;8.693208694458008;221;Hettlingen
7368096;46.46567916870117;6.84184455871582;5890;Vevey
7468825;47.131629943847656;7.266219615936279;371;Biel/Bienne
7457739;47.177513122558594;8.710317611694336;1321;Feusisberg
7468712;47.37321090698242;8.046985626220703;4013;Unterentfelden
7411278;46.862701416015625;9.519031524658203;3901;Chur
7301759;47.56281280517578;7.616721153259277;2701;Basel
7418552;47.55506134033203;7.553959846496582;2762;Allschwil
7468358;46.94636917114258;7.426689147949219;351;Bern
7468237;47.479225158691406;9.576885223388672;3237;Thal
7468217;47.36670684814453;7.956192493438721;2497;Obergösgen
7468162;46.197052001953125;6.189189910888672;6612;Chêne-Bougeries
7468127;46.92572021484375;7.3785576820373535;355;Köniz
7468034;46.18622970581055;6.135648250579834;6608;Carouge (GE)
7308404;47.29627990722656;8.744394302368164;115;Gossau (ZH)
7468037;45.99075698852539;8.945945739746094;5210;Paradiso
7467995;47.391357421875;8.188180923461914;4201;Lenzburg
7467971;47.348026275634766;8.594538688659668;161;Zollikon
7467951;46.36656188964844;8.973454475402832;5281;Biasca
7467936;47.51860427856445;7.696498870849609;2831;Pratteln
7467914;46.759037017822266;7.619719982147217;942;Thun
7467853;47.52240753173828;8.547454833984375;53;Bülach
7467799;46.89085006713867;8.25251579284668;1407;Sarnen
7467747;46.53382873535156;6.61189079284668;5586;Lausanne
7467774;47.27184677124024;8.910683631896973;120;Wald (ZH)
7467756;47.25912857055664;8.18297290802002;4141;Reinach (AG)
7467711;47.55503082275391;9.361129760742188;4436;Romanshorn
7467703;47.5312728881836;7.988627433776855;4161;Eiken
7409493;47.41940307617188;9.072043418884276;3392;Kirchberg (SG)
7467687;47.2264404296875;8.815746307373047;3340;Rapperswil-Jona
7467681;47.37047958374024;8.382351875305176;4075;Rudolfstetten-Friedlisberg
7467662;47.05968475341797;8.310422897338867;1061;Luzern
7467648;46.31435012817383;6.900086402893066;6158;Vionnaz
7467643;47.43862533569336;9.399118423461914;3203;St. Gallen
7467572;47.37681579589844;8.815716743469238;173;Hittnau
7379722;46.5151596069336;6.687925815582275;5606;Lutry
7467362;46.9043083190918;6.48164701461792;6511;Les Verrières
7467518;47.23698043823242;8.755477905273438;158;Stäfa
7467531;47.22768783569336;8.835078239440918;3340;Rapperswil-Jona
7467480;47.38663482666016;8.330864906311035;4031;Künten
7447205;46.3829231262207;6.857839107513428;6154;Port-Valais
7369382;46.3212776184082;7.984979152679443;6007;Naters
7467461;47.124114990234375;8.444090843200684;1064;Meierskappel
7467437;46.468868255615234;6.861739158630371;5892;Blonay - Saint-Légier
7427064;47.48260116577149;8.901642799377441;4551;Aadorf
7466939;47.26839447021485;8.643078804016113;156;Meilen
7467291;46.51847457885742;6.632765293121338;5586;Lausanne
7467218;47.46978759765625;8.33447551727295;4045;Wettingen
7015951;46.00469207763672;8.961973190307617;5192;Lugano
7440244;47.13557815551758;7.248343467712402;371;Biel/Bienne
7467202;47.5293083190918;7.644217491149902;2770;Muttenz
7466877;46.20099258422852;6.155486106872559;6621;Genève
7467082;47.39341735839844;8.775614738464355;178;Russikon
7199754;46.46430969238281;6.854193210601807;5890;Vevey
7467061;47.332462310791016;8.878400802612305;111;Bäretswil
7466970;47.35676193237305;8.528594970703125;261;Zürich
7466995;47.29983139038086;7.773283958435059;2405;Niederbuchsiten
7388101;47.61209487915039;9.05099868774414;4701;Wäldi
7192475;46.15033721923828;6.105518817901611;6605;Bardonnex
7466981;46.01961898803711;8.949782371520996;5221;Savosa
7466910;47.06821823120117;8.526924133300781;1362;Arth
7466795;47.12857818603516;9.490763664245604;3275;Sevelen
7466712;47.45076751708984;7.520137310028076;2781;Blauen
7378210;47.4395751953125;8.634795188903809;52;Bassersdorf
7465663;46.99338912963867;7.452945709228516;361;Zollikofen
7251712;46.47920608520508;6.889610290527344;5892;Blonay - Saint-Légier
7462109;47.56953048706055;9.107255935668944;4946;Weinfelden
7425185;45.95410537719727;8.915480613708496;5192;Lugano
7250665;46.55328750610352;6.698237895965576;5586;Lausanne
7430039;47.32689666748047;8.831860542297363;121;Wetzikon (ZH)
7465919;47.35794448852539;8.498031616210938;261;Zürich
7465881;47.290164947509766;8.604887962341309;152;Herrliberg
7407941;46.17625427246094;7.25527286529541;6024;Nendaz
7417953;47.08766555786133;7.425372123718262;310;Rapperswil (BE)
7465593;46.524391174316406;6.632558822631836;5586;Lausanne
7465648;47.43549728393555;8.767704963684082;180;Weisslingen
7454683;47.18659591674805;8.499632835388184;1701;Baar
7461600;46.19018173217773;6.152301788330078;6621;Genève
6939632;46.67943572998047;7.649258613586426;769;Wimmis
7449798;47.14204788208008;7.271048545837402;371;Biel/Bienne
7418016;46.77085876464844;6.6552252769470215;5938;Yverdon-les-Bains
7435469;46.90311050415039;7.50279951095581;861;Belp
7400961;47.50237655639648;8.472468376159668;88;Neerach
7465183;47.40370178222656;7.429095268249512;2788;Liesberg
7465173;46.176212310791016;7.25499963760376;6024;Nendaz
7464964;47.141822814941406;8.74080753326416;1301;Einsiedeln
7271943;47.01924514770508;7.430306434631348;546;Münchenbuchsee
6975207;46.46944427490234;6.889188766479492;5892;Blonay - Saint-Légier
6977183;47.4180908203125;8.31387996673584;4037;Oberrohrdorf
7464353;47.40966796875;8.535852432250977;261;Zürich
7464100;46.542213439941406;6.588054180145264;5591;Renens (VD)
7464053;46.981407165527344;7.5015764236450195;352;Bolligen
7348084;46.03324508666992;8.943052291870117;5180;Cureglia
7463524;47.191349029541016;8.71968936920166;1323;Wollerau
7419663;47.39117431640625;9.365891456604004;3024;Teufen (AR)
7462993;46.97648239135742;7.477489948272705;362;Ittigen
7453372;47.44666290283203;7.549654960632324;2789;Nenzlingen
7462921;47.55906677246094;8.50708293914795;58;Glattfelden
7372998;46.98283004760742;6.907191753387451;6458;Neuchâtel
7251744;46.20588302612305;6.1387457847595215;6621;Genève
7447548;46.39980697631836;6.224734306335449;5724;Nyon
7462865;47.27363204956055;8.447460174560547;2;Affoltern am Albis
7441251;47.2888069152832;8.569164276123047;141;Thalwil
7373412;46.38898468017578;6.226683616638184;5724;Nyon
7453140;47.397891998291016;8.456594467163086;247;Schlieren
7167626;46.93537139892578;7.501008987426758;356;Muri bei Bern
7462175;46.72857284545898;6.531561374664307;5757;Orbe
7462179;46.740501403808594;7.614383220672607;942;Thun
7295243;46.71442031860352;9.539501190185549;3506;Vaz/Obervaz
7461754;46.24539566040039;6.224489212036133;6629;Meinier
7461370;47.457706451416016;7.735342979431152;2823;Bubendorf
7461362;46.20598220825195;6.132436275482178;6621;Genève
7461102;46.891143798828125;7.170351982116699;2262;Gurmels
7460925;46.876800537109375;9.532493591308594;3901;Chur
7460764;46.77450942993164;7.620068073272705;939;Steffisburg
7460587;46.99399185180664;9.06917667388916;1631;Glarus Süd
7460479;46.19072723388672;6.152486801147461;6621;Genève
7420250;47.10326385498047;7.165149688720703;756;Twann-Tüscherz
7299752;47.26361083984375;8.585257530212402;295;Horgen
7460190;47.50703048706055;8.026291847229004;4163;Frick
7322422;46.49596786499024;6.389535427093506;5422;Aubonne
7272546;47.19663238525391;7.421270847320557;2543;Bettlach
7459971;47.3990592956543;8.455099105834961;247;Schlieren
7459884;46.41666412353516;6.273703575134277;5721;Gland
7453620;47.42409896850586;8.302850723266602;4035;Niederrohrdorf
7459871;46.953163146972656;9.569622039794922;3955;Landquart
6584876;47.00578689575195;6.905125141143799;6458;Neuchâtel
7459528;46.53985977172852;6.654552936553955;5586;Lausanne
7459756;47.42449188232422;8.30478286743164;4035;Niederrohrdorf
7459228;47.39005661010742;8.4922513961792;261;Zürich
7458553;47.1817626953125;9.453676223754885;3273;Grabs
7458572;46.95140838623047;7.38794994354248;351;Bern
7458487;47.07168197631836;8.404279708862305;1331;Küssnacht (SZ)
7458543;46.17479705810547;6.126460075378418;6628;Lancy
7458498;46.20096206665039;6.161199569702148;6621;Genève
7458465;47.26937103271485;7.94269323348999;4274;Brittnau
7457986;47.33956909179688;8.473102569580078;14;Wettswil am Albis
7458448;47.03633880615234;6.904425621032715;6487;Val-de-Ruz
7458348;47.411865234375;8.78945541381836;178;Russikon
7458206;46.74725341796875;7.641489028930664;929;Hilterfingen
7414790;46.99777221679688;8.602950096130371;1364;Ingenbohl
7458298;46.22460174560547;7.302038669586182;6023;Conthey
7458204;47.385353088378906;8.493080139160156;261;Zürich
6585441;47.44486999511719;7.688417911529541;2830;Lupsingen
7456913;46.500675201416016;6.480101585388184;5649;Tolochenaz
7397607;47.31697845458984;8.416177749633789;4061;Arni (AG)
7457016;46.92960357666016;6.820085048675537;6417;La Grande Béroche
7457259;47.49189758300781;7.507743835449219;2471;Bättwil
7367906;46.20135116577149;6.131540775299072;6621;Genève
7456966;47.24933242797852;8.63237190246582;293;Wädenswil
7456808;47.55104064941406;7.579087734222412;2701;Basel
7456824;47.585445404052734;9.061471939086914;4941;Märstetten
7308310;47.4083366394043;9.315224647521973;3203;St. Gallen
7456184;47.19857025146485;8.705010414123535;1323;Wollerau
7450941;47.63417434692383;8.655452728271484;35;Marthalen
7368288;47.3953971862793;8.5172119140625;261;Zürich
7390304;47.11948394775391;7.202792644500732;756;Twann-Tüscherz
7368599;47.41334533691406;9.243529319763184;3443;Gossau (SG)
7334700;47.397708892822266;8.422785758972168;243;Dietikon
7297463;46.23265075683594;6.084401607513428;6630;Meyrin
7455684;47.09037399291992;8.568368911743164;1711;Zug
7455694;47.13156127929688;7.603432178497314;413;Koppigen
7444724;47.12080764770508;8.443622589111328;1064;Meierskappel
7455639;47.37295150756836;8.432072639465332;250;Urdorf
7043003;47.38617706298828;8.482650756835938;261;Zürich
7455501;46.21117782592773;6.114524364471436;6643;Vernier
7455444;47.41517639160156;8.605565071105957;69;Wallisellen
7455429;47.23222732543945;8.83672046661377;3340;Rapperswil-Jona
7449099;47.325477600097656;8.52845287322998;131;Adliswil
7435106;47.43071365356445;8.672163009643555;176;Lindau
7455133;47.18659591674805;8.499632835388184;1701;Baar
7455033;47.36629867553711;8.562403678894043;261;Zürich
7455053;46.19093322753906;6.151401519775391;6621;Genève
6978696;47.354148864746094;8.560637474060059;261;Zürich
7357281;46.54206466674805;6.628562450408936;5587;Le Mont-sur-Lausanne
6763482;47.37046432495117;8.685418128967285;198;Uster
7454129;46.54668045043945;6.586008071899414;5583;Crissier
7454192;47.260963439941406;8.599994659423828;295;Horgen
7410154;47.354148864746094;8.560637474060059;261;Zürich
7454157;47.42648315429688;8.570707321166992;66;Opfikon
7454102;46.74260711669922;6.652919292449951;5934;Valeyres-sous-Ursins
7357031;47.21235275268555;7.583359241485596;2527;Luterbach
7367647;46.73054885864258;6.419135093688965;5744;Ballaigues
7453414;47.47623443603516;9.471476554870604;3213;Goldach
7402347;47.54145812988281;8.679723739624023;223;Neftenbach
7453985;46.53257751464844;6.61544132232666;5586;Lausanne
7453752;46.23588943481445;6.26584529876709;6626;Jussy
7395951;46.186920166015625;6.122140884399414;6628;Lancy
7453445;46.98537063598633;9.57221794128418;3954;Malans
7453368;47.49309921264648;8.33973217010498;4049;Ehrendingen
7399695;46.46080017089844;6.842614650726318;5890;Vevey
7452473;47.35945129394531;8.566969871520996;261;Zürich
7410368;47.68899917602539;8.813034057617188;2963;Ramsen
7385982;47.35750198364258;8.108957290649414;4006;Gränichen
7452362;46.80248260498047;9.255627632141112;3575;Laax
7452340;46.19657516479492;6.149281024932861;6621;Genève
7452309;47.38732147216797;8.038530349731445;4001;Aarau
7452316;47.34374237060547;8.356351852416992;4083;Zufikon
7452256;47.397891998291016;8.456594467163086;247;Schlieren
7452245;47.2277717590332;8.954118728637695;3338;Schmerikon
7345077;46.813995361328125;7.111738681793213;2183;Corminboeuf
7452112;46.34550857543945;6.162325382232666;5707;Chavannes-de-Bogis
7314739;46.50318908691406;6.486591339111328;5642;Morges
7452006;47.53753662109375;7.736774921417236;4252;Kaiseraugst
7435027;47.45016860961914;7.735836982727051;2823;Bubendorf
7450707;46.43477630615234;6.217403888702393;5718;Genolier
7450594;47.26689910888672;8.927849769592285;120;Wald (ZH)
7451907;47.354148864746094;8.560637474060059;261;Zürich
7451806;47.19252014160156;7.447214603424072;2556;Selzach
7451580;46.76556015014648;7.203187465667725;2294;Giffers
7451291;47.37489318847656;8.486019134521484;261;Zürich
7451431;46.38659286499024;6.204861640930176;5716;Eysins
7451414;46.47032928466797;6.883179664611816;5892;Blonay - Saint-Légier
7451251;47.518821716308594;8.141490936279297;4106;Mönthal
7451379;47.41886901855469;8.276954650878906;4033;Mellingen
7451158;46.20560073852539;6.164085388183594;6621;Genève
7451099;47.60615158081055;8.231978416442871;4310;Koblenz
7092427;47.18035507202149;8.518603324890137;1711;Zug
7387846;47.31328582763672;8.465909004211426;3;Bonstetten
7451045;47.43059158325195;8.543941497802734;261;Zürich
7450806;46.33247756958008;7.525665760040283;6253;Crans-Montana
6898244;47.17338562011719;7.558905601501465;2513;Biberist
7450868;47.75276947021485;8.70417594909668;2920;Thayngen
7450021;47.16255187988281;7.287060260772705;371;Biel/Bienne
7450652;46.20588302612305;6.1387457847595215;6621;Genève
7450485;47.52479553222656;7.647059917449951;2770;Muttenz
7450454;47.397891998291016;8.456594467163086;247;Schlieren
6909356;46.99383163452149;7.455907344818115;361;Zollikofen
7450455;47.09796142578125;9.063748359680176;1630;Glarus Nord
7449873;46.29117965698242;7.838688850402832;6297;Visp
7450181;47.18659591674805;8.499632835388184;1701;Baar
7450243;46.21072006225586;6.150053024291992;6621;Genève
7450083;47.4123420715332;8.588797569274902;69;Wallisellen
7300001;46.80667495727539;7.160705089569092;2196;Fribourg
7408642;46.75187683105469;7.079591274261475;2233;Hauterive (FR)
7408595;46.22433090209961;6.10640287399292;6630;Meyrin
7449628;47.53662872314453;7.627581596374512;2770;Muttenz
6977572;47.466556549072266;9.48604965209961;3216;Rorschacherberg
7449702;46.6905517578125;7.67415714263916;768;Spiez
7329528;46.23225784301758;7.867762088775635;6293;Stalden (VS)
7301804;47.54212188720703;7.589999198913574;2701;Basel
7408584;46.19010925292969;6.111699104309082;6628;Lancy
7449376;47.4179573059082;8.504796981811523;261;Zürich
7449375;47.52729797363281;8.46852970123291;100;Stadel
7391028;47.460296630859375;8.63956069946289;64;Nürensdorf
7449334;47.181396484375;8.514777183532715;1711;Zug
7449203;47.52318572998047;7.641391754150391;2770;Muttenz
7449207;47.52509307861328;9.38983917236328;4431;Roggwil (TG)
7449136;47.17588424682617;8.713177680969238;1321;Feusisberg
7449104;47.36991882324219;8.545300483703613;261;Zürich
7449069;46.44963073730469;6.871029376983643;5889;La Tour-de-Peilz
7449053;46.51450347900391;6.501402378082275;5642;Morges
7448978;46.54783630371094;6.560859203338623;5624;Bussigny
7448946;47.24826431274414;8.700231552124023;155;Männedorf
7448877;46.67510223388672;7.685596466064453;768;Spiez
7448824;47.14603805541992;8.610074043273926;1706;Oberägeri
7448820;46.45626831054688;6.870093822479248;5889;La Tour-de-Peilz
7448817;47.39131927490234;8.677709579467773;199;Volketswil
7448718;47.166934967041016;7.526558399200439;2526;Lohn-Ammannsegg
7448675;47.21653366088867;8.969256401062012;1347;Tuggen
7448670;47.27594757080078;8.83737850189209;113;Dürnten
6892511;47.19906234741211;8.881573677062988;1349;Wangen (SZ)
7448547;47.39529037475586;8.25525951385498;4068;Hägglingen
7448544;47.52525329589844;7.697169780731201;2831;Pratteln
7403294;47.36470413208008;8.3703031539917;4075;Rudolfstetten-Friedlisberg
7408624;47.05836486816406;8.33335018157959;1061;Luzern
7448423;47.27276611328125;8.7333402633667;157;Oetwil am See
7448408;46.18888473510742;6.156157493591309;6621;Genève
7448360;47.40378952026367;8.548255920410156;261;Zürich
7427810;46.52091598510742;6.681448936462402;5581;Belmont-sur-Lausanne
7448252;47.42475509643555;8.563809394836426;66;Opfikon
7172974;47.2886848449707;8.858713150024414;117;Hinwil
7448093;46.81521224975586;7.132889270782471;2197;Givisiez
6904816;47.24026107788086;8.805720329284668;3340;Rapperswil-Jona
7447873;47.48524475097656;8.76090145111084;230;Winterthur
7342220;47.346866607666016;8.255900382995605;4080;Villmergen
7447821;46.42850875854492;6.220821857452393;5718;Genolier
7447772;47.51067733764648;8.707843780517578;230;Winterthur
7447736;47.37051773071289;8.513668060302734;261;Zürich
7447537;47.23777389526367;8.809547424316406;3340;Rapperswil-Jona
6820006;46.228153228759766;7.377718448638916;6266;Sion
7447597;47.32122802734375;8.53572940826416;135;Kilchberg (ZH)
7427123;47.12232971191406;8.399736404418945;1055;Gisikon
7447628;47.25395965576172;8.615828514099121;295;Horgen
7447653;46.4370231628418;6.205551624298096;5718;Genolier
7447552;47.52410507202149;7.911290168762207;4264;Zuzgen
7447483;46.20008850097656;6.132386207580566;6621;Genève
7447336;46.93323516845703;9.559101104736328;3947;Zizers
7447431;47.23338317871094;7.573905467987059;2554;Riedholz
7446787;47.49732971191406;7.551655769348144;2775;Therwil
7447215;47.25139999389648;8.598562240600586;295;Horgen
7301956;47.53806686401367;7.965370178222656;4172;Münchwilen (AG)
7446534;46.770774841308594;7.176466941833496;2206;Marly
7406205;46.773193359375;7.620513916015625;939;Steffisburg
7358452;47.37013244628906;7.345327377319336;6711;Delémont
7446412;47.04603958129883;7.149672985076904;497;Lüscherz
7368893;47.272796630859375;8.642058372497559;156;Meilen
7413343;46.22218322753906;7.583653450012207;6252;Anniviers
7445997;47.429954528808594;8.560653686523438;66;Opfikon
7175688;47.39844512939453;8.43955135345459;247;Schlieren
7445680;47.6348991394043;8.997163772583008;4816;Homburg
7445108;47.45597457885742;8.637772560119629;64;Nürensdorf
7217083;46.96501159667969;7.120597362518311;2284;Mont-Vully
7407663;47.231693267822266;9.04029369354248;3341;Gommiswald
7134268;45.9825325012207;8.844254493713379;5239;Tresa
7445172;46.11058807373047;8.933703422546387;5238;Monteceneri
7427927;47.00733184814453;7.005182266235352;6461;La Tène
7444812;47.47760391235352;9.461467742919922;3213;Goldach
7444685;47.06587600708008;7.197060585021973;751;Täuffelen
7444147;47.17877960205078;8.547588348388672;1701;Baar
7443838;47.30066680908203;8.446938514709473;5;Hedingen
7443701;47.3492546081543;8.724555015563965;198;Uster
7443702;47.237548828125;8.743499755859375;158;Stäfa
7443660;47.05379867553711;9.41997528076172;3293;Mels
7443553;47.198272705078125;8.521507263183594;1701;Baar
7443154;46.81502151489258;7.1031694412231445;2175;Belfaux
7306323;47.45377349853516;8.325894355773926;4034;Neuenhof
7347535;47.40700912475586;9.6093111038208;3232;Balgach
7401052;46.45048522949219;6.861926078796387;5889;La Tour-de-Peilz
7372193;46.44302749633789;6.909816741943359;5886;Montreux
7441988;47.41262435913086;8.53308391571045;261;Zürich
7357653;46.51508331298828;6.568745136260986;5648;Saint-Sulpice (VD)
7442304;47.10762023925781;7.24434232711792;732;Bellmund
7442036;47.41645812988281;8.57578182220459;69;Wallisellen
7442053;47.488040924072266;8.335511207580566;4049;Ehrendingen
7442040;47.27714538574219;8.83998966217041;113;Dürnten
7429446;46.31919860839844;6.186047077178955;5712;Coppet
7305145;46.51386642456055;6.845412731170654;2321;Attalens
7441705;46.19077301025391;6.160567760467529;6621;Genève
7440234;47.38629531860352;8.525397300720215;261;Zürich
7441230;47.49205017089844;8.226237297058105;4095;Brugg
7441160;47.42524719238281;8.30752182006836;4035;Niederrohrdorf
7440999;47.39040756225586;9.580217361450195;3253;Marbach (SG)
7440843;46.73106002807617;6.534222602844238;5757;Orbe
7440893;46.54668045043945;6.586008071899414;5583;Crissier
7440713;46.45689392089844;7.458196640014648;792;Lenk
7440579;47.60798263549805;8.820632934570312;4821;Hüttwilen
7440577;45.993408203125;8.946000099182129;5192;Lugano
6408551;46.87795639038086;8.640304565429688;1201;Altdorf (UR)
7391522;46.89532852172852;7.16033411026001;2262;Gurmels
7439840;46.21197128295898;7.006613731384277;6217;Saint-Maurice
7439639;47.09904098510742;8.644845962524414;1706;Oberägeri
7428397;46.79509735107422;9.25873565673828;3581;Sagogn
7439412;46.62340927124024;7.369841575622559;791;Boltigen
7439395;46.636112213134766;6.839976787567139;2102;Ursy
7025037;46.18989181518555;9.000083923339844;5002;Bellinzona
7394619;46.52365493774414;6.541721820831299;5632;Denges
7438617;47.42475509643555;8.563809394836426;66;Opfikon
7336696;46.88694381713867;6.554174423217773;6512;Val-de-Travers
7438364;47.37049865722656;8.558499336242676;261;Zürich
7332722;47.414180755615234;9.440146446228027;3023;Speicher
7438281;47.569602966308594;7.57454776763916;2701;Basel
7254565;47.38960647583008;8.539352416992188;261;Zürich
7437878;47.42475509643555;8.563809394836426;66;Opfikon
7260188;47.10927581787109;7.524100780487059;538;Fraubrunnen
7434549;47.41519927978516;8.476568222045898;261;Zürich
7437633;46.55632781982422;6.580891609191895;5583;Crissier
7437203;47.17798614501953;8.441946029663086;1703;Hünenberg
7437547;45.99503326416016;8.943442344665527;5192;Lugano
6589278;47.19148635864258;8.924239158630371;1347;Tuggen
7437268;47.41422653198242;9.18594455718994;3402;Flawil
7437279;47.49938201904297;8.343612670898438;4049;Ehrendingen
7437010;46.23128509521485;6.079662322998047;6630;Meyrin
7341643;46.22005844116211;9.032414436340332;5002;Bellinzona
6977099;46.01498794555664;8.955583572387695;5192;Lugano
7436011;47.3885383605957;8.666447639465332;199;Volketswil
7432642;47.51162338256836;7.622425556182861;2769;Münchenstein
7387455;46.67642593383789;7.077128410339356;2122;Pont-en-Ogoz
7435157;46.196388244628906;6.153019905090332;6621;Genève
6820825;46.31224822998047;7.9736127853393555;6002;Brig-Glis
7434787;46.92409133911133;8.263778686523438;1407;Sarnen
7408340;47.31599807739258;7.800126552581787;2401;Egerkingen
6586579;46.53919982910156;6.595623016357422;5591;Renens (VD)
7434720;46.1705436706543;6.1749773025512695;6645;Veyrier
7434666;46.46870040893555;6.899500370025635;5892;Blonay - Saint-Légier
7434423;47.16508483886719;7.57438850402832;2519;Gerlafingen
7434353;47.55437850952149;7.803792476654053;4258;Rheinfelden
7431419;46.16599655151367;8.789996147155762;5113;Locarno
6954397;47.17507553100586;7.359205722808838;387;Lengnau (BE)
7433835;47.45865631103516;9.135302543640137;3424;Oberbüren
7433469;47.03380584716797;8.441740036010742;1069;Weggis
7432612;46.38144302368164;6.238847732543945;5724;Nyon
7433628;47.432071685791016;8.407793998718262;246;Oetwil an der Limmat
7433191;47.219364166259766;7.198742389678955;713;Tavannes
7432862;47.37852096557617;8.484333992004395;261;Zürich
7433013;46.95778274536133;7.021807670593262;5456;Cudrefin
6862175;46.21380233764648;6.151792526245117;6621;Genève
7432738;47.094757080078125;6.822966575622559;6421;La Chaux-de-Fonds
7432525;47.47910690307617;9.47696590423584;3213;Goldach
7432075;47.445457458496094;8.633174896240234;52;Bassersdorf
7347179;47.43807220458984;9.198442459106444;3424;Oberbüren
7432048;47.33984756469727;8.025723457336426;4276;Kölliken
7432027;47.63783645629883;9.21362018585205;4643;Bottighofen
7431331;47.07643127441406;8.265180587768555;1024;Emmen
7431961;46.62361907958984;6.990568161010742;2155;Vaulruz
7431882;47.08504104614258;7.596384048461914;412;Kirchberg (BE)
7431955;46.450721740722656;6.154746055603027;5727;Saint-Cergue
7431889;47.17485809326172;8.948233604431152;1346;Schübelbach
7408748;47.46696853637695;9.048835754394531;3427;Wil (SG)
7431906;47.60418701171875;9.002130508422852;4831;Müllheim
7431897;47.1108627319336;7.4017333984375;2461;Schnottwil
7431635;47.252098083496094;8.710612297058105;155;Männedorf
7431633;47.10752487182617;7.389283180236816;2461;Schnottwil
7220426;47.35750198364258;8.108957290649414;4006;Gränichen
7431334;47.154876708984375;8.32104206085205;1023;Ballwil
7431398;46.51695251464844;6.654839038848877;5590;Pully
7134698;46.51740264892578;6.611841201782227;5586;Lausanne
7431031;47.26946640014648;8.661528587341309;156;Meilen
7273325;47.41237258911133;8.462158203125;245;Oberengstringen
7251425;47.50355529785156;8.72974967956543;230;Winterthur
6844498;46.67963409423828;7.855543613433838;581;Interlaken
7430359;46.864017486572266;9.535412788391112;3901;Chur
7430224;46.90271759033203;7.483165740966797;861;Belp
7387313;47.52031707763672;7.60619592666626;2769;Münchenstein
7175007;47.64348220825195;9.14320945739746;4696;Tägerwilen
7429665;47.41781234741211;8.593132972717285;69;Wallisellen
7429613;46.43893051147461;6.242321014404297;5732;Vich
7429503;47.28329086303711;8.143257141113281;4135;Gontenschwil
7429266;47.1378059387207;7.930350303649902;1150;Zell (LU)
7277551;47.4448471069336;8.700322151184082;176;Lindau
7429202;47.56828689575195;8.419724464416504;4324;Zurzach
7425289;47.341705322265625;8.266297340393066;4082;Wohlen (AG)
7429059;47.4039306640625;8.620677947998047;191;Dübendorf
7428978;47.49195098876953;7.5862040519714355;2773;Reinach (BL)
7428917;46.22019958496094;6.145626068115234;6621;Genève
7428888;47.28095626831055;7.380058765411377;700;Moutier
7428825;47.67300033569336;9.017287254333496;4801;Berlingen
7428807;47.16082000732422;8.548136711120605;1701;Baar
7428635;47.14112854003906;7.239563941955566;371;Biel/Bienne
6975969;47.24298858642578;8.45803451538086;9;Mettmenstetten
7428632;46.40000915527344;6.244199275970459;5725;Prangins
7271229;46.675907135009766;7.652675628662109;769;Wimmis
7428555;47.4848861694336;8.189936637878418;4111;Riniken
7428488;47.31842041015625;7.97890043258667;4283;Safenwil
7427298;46.59663391113281;7.053799629211426;2145;Le Pâquier (FR)
7428332;47.46154022216797;8.250984191894531;4024;Birmenstorf (AG)
6938943;47.395545959472656;8.421320915222168;250;Urdorf
7428273;47.41410827636719;8.17857551574707;4203;Möriken-Wildegg
7428201;47.41033554077149;8.79152774810791;178;Russikon
6894838;47.55961990356445;8.492401123046875;58;Glattfelden
7428009;47.34663772583008;7.914158344268799;2581;Olten
7427979;46.863094329833984;7.260876655578613;2305;Schmitten (FR)
7427872;47.43300628662109;8.545095443725586;97;Rümlang
7308698;47.56317901611328;8.884583473205566;4566;Frauenfeld
7427865;47.27738571166992;8.80030632019043;112;Bubikon
6893285;46.20064163208008;6.1619873046875;6621;Genève
7381144;45.82990646362305;9.03442668914795;5250;Chiasso
7427711;45.84477996826172;9.03044605255127;5268;Vacallo
7427598;46.39980697631836;6.224734306335449;5724;Nyon
7427412;47.327518463134766;8.63122844696045;160;Zumikon
7427351;47.17383193969727;9.466702461242676;3271;Buchs (SG)
7427310;47.46577072143555;7.600196838378906;2761;Aesch (BL)
7427294;47.55354690551758;7.994436264038086;4177;Sisseln
7426619;47.31855773925781;8.533509254455566;131;Adliswil
7426194;46.55018615722656;6.634887218475342;5587;Le Mont-sur-Lausanne
7336646;47.39517974853516;7.420291900634766;2788;Liesberg
7244464;47.29164123535156;9.346050262451172;3112;Schwende-Rüte
7424437;47.26210021972656;8.592680931091309;295;Horgen
7368683;46.9659423828125;7.377719879150391;360;Wohlen bei Bern
7423157;46.17217254638672;6.184048652648926;6645;Veyrier
7321506;47.39078140258789;8.661730766296387;199;Volketswil
7423146;47.13243865966797;8.441862106323242;1707;Risch
7247204;47.459022521972656;8.44440746307373;83;Buchs (ZH)
7333141;46.60173416137695;6.782556056976318;5806;Jorat-Mézières
7422063;47.47682189941406;7.520164966583252;2476;Hofstetten-Flüh
7173472;47.26974868774414;8.64714527130127;156;Meilen
7096316;46.45654296875;6.205063819885254;5702;Arzier-Le Muids
6623687;47.49195098876953;7.5862040519714355;2773;Reinach (BL)
7421822;47.75006484985352;8.700785636901855;2920;Thayngen
7421897;46.60664749145508;7.032050609588623;2125;Bulle
7329542;47.26522064208984;8.926557540893555;120;Wald (ZH)
7421421;47.30902862548828;8.591523170471191;154;Küsnacht (ZH)
7421448;46.18152618408203;9.010851860046388;5002;Bellinzona
7173873;46.20309448242188;6.155118942260742;6621;Genève
7406422;47.56805419921875;8.242449760437012;4303;Böttstein
7420214;47.38655853271485;8.12122631072998;4200;Hunzenschwil
7419348;46.82573318481445;7.3010172843933105;2296;Heitenried
7418591;47.40462493896485;8.504796028137207;261;Zürich
7411773;46.02130889892578;7.751214981079102;6300;Zermatt
7414901;46.22566223144531;7.346721649169922;6266;Sion
7418001;47.319435119628906;8.18951416015625;4208;Seengen
7417822;47.70847702026367;8.641925811767578;2939;Schaffhausen
7417967;47.451316833496094;9.15481948852539;3424;Oberbüren
7416402;47.366024017333984;8.783287048339844;177;Pfäffikon
7416722;47.52145004272461;9.407991409301758;4401;Arbon
7416232;47.17271423339844;8.769350051879883;1301;Einsiedeln
7416539;47.47008895874024;8.302106857299805;4021;Baden
7327593;47.45273971557617;8.372754096984863;4048;Würenlos
7415286;46.45787811279297;6.334475994110107;5861;Rolle
7056744;47.28892135620117;8.196773529052734;4132;Birrwil
7415160;47.213680267333984;7.771233081817627;329;Langenthal
7415118;46.97389221191406;8.342796325683594;1510;Stansstad
6977670;47.4873046875;7.612704753875732;2473;Dornach
7414882;46.55860900878906;6.6352643966674805;5587;Le Mont-sur-Lausanne
7414789;47.33530426025391;9.5888032913208;3254;Oberriet (SG)
7414736;47.602577209472656;8.994745254516602;4831;Müllheim
7414709;47.55011367797852;7.572566986083984;2701;Basel
7358515;46.81346130371094;7.129621982574463;2197;Givisiez
7413801;45.84944915771485;9.031377792358398;5268;Vacallo
7413445;46.182743072509766;8.819661140441895;5118;Minusio
7413121;46.39980697631836;6.224734306335449;5724;Nyon
7411939;47.32236099243164;8.213476181030273;4208;Seengen
7411986;47.524410247802734;7.848055362701416;2853;Maisprach
7411974;47.00578689575195;6.905125141143799;6458;Neuchâtel
7411902;47.30503463745117;8.59720516204834;151;Erlenbach (ZH)
7308835;47.40010833740234;8.13037395477295;4206;Rupperswil
7411857;47.325477600097656;8.52845287322998;131;Adliswil
7254974;47.47134017944336;8.30805778503418;4021;Baden
7303779;46.17583847045898;6.161165237426758;6645;Veyrier
7411774;47.03664016723633;8.277268409729004;1059;Kriens
7411753;47.569095611572266;7.586732864379883;2701;Basel
7411329;47.248634338378906;7.644232749938965;995;Wiedlisbach
7410936;47.55288314819336;7.956476211547852;4260;Stein (AG)
7410797;47.07830047607422;7.630042552947998;412;Kirchberg (BE)
6571186;47.377140045166016;8.515775680541992;261;Zürich
7410719;47.39139175415039;8.617588996887207;191;Dübendorf
7410358;46.74578094482422;7.648069858551025;929;Hilterfingen
7408417;47.318580627441406;8.383277893066406;4079;Unterlunkhofen
7410003;46.98434829711914;7.500687599182129;352;Bolligen
7409648;47.22637939453125;7.897470474243164;1139;Pfaffnau
7408862;47.43965911865234;8.462336540222168;96;Regensdorf
7408764;47.29814529418945;8.837690353393555;117;Hinwil
7408732;47.23862838745117;8.657703399658203;293;Wädenswil
7338317;47.12871551513672;8.288358688354492;1026;Eschenbach (LU)
7365503;47.08587265014648;7.584986686706543;412;Kirchberg (BE)
7408410;47.08856201171875;7.783807277679443;952;Dürrenroth
7408372;47.358158111572266;7.348164558410644;6711;Delémont
7408334;47.467315673828125;9.492291450500488;3216;Rorschacherberg
7407550;46.53056335449219;6.589847087860107;5591;Renens (VD)
7408145;47.19575881958008;8.484529495239258;1708;Steinhausen
7407977;47.04991149902344;9.058761596679688;1632;Glarus
7408007;47.20497512817383;7.5412678718566895;2601;Solothurn
7407201;47.5850944519043;7.668336391448975;2703;Riehen
7318602;46.171016693115234;8.998201370239258;5002;Bellinzona
7320246;47.44449615478516;8.576231002807617;62;Kloten
7066848;47.24848175048828;8.726075172424316;158;Stäfa
7407155;47.38341522216797;8.66242504119873;197;Schwerzenbach
7407510;46.85426712036133;7.037240505218506;5451;Avenches
7407511;47.41751480102539;7.501459121704102;2787;Laufen
7407192;46.78199005126953;6.6352314949035645;5938;Yverdon-les-Bains
7407346;47.398250579833984;8.44690227508545;247;Schlieren
6964560;47.34663772583008;7.914158344268799;2581;Olten
7407244;47.05591583251953;8.297584533691406;1061;Luzern
7407086;46.99099349975586;6.921878337860107;6458;Neuchâtel
7407205;46.81078720092773;6.643008232116699;5561;Grandson
7407059;47.3759651184082;8.791584014892578;177;Pfäffikon
7406927;47.24345016479492;8.648527145385742;293;Wädenswil
7331298;47.50142288208008;8.599289894104004;56;Embrach
7406032;47.41438674926758;8.095425605773926;4002;Biberstein
7406298;46.231224060058594;6.132634162902832;6621;Genève
7406338;47.439453125;9.164755821228027;3424;Oberbüren
6688629;47.16312789916992;7.579356670379639;2528;Obergerlafingen
7405105;46.41816711425781;6.279181003570557;5721;Gland
7405060;47.53630065917969;7.713943004608154;2822;Augst
7405005;47.420143127441406;8.371801376342773;4040;Spreitenbach
7404158;47.6246337890625;8.774797439575195;292;Stammheim
7403786;46.437442779541016;6.915143489837647;5886;Montreux
7403138;47.48150634765625;7.97553825378418;4181;Wittnau
7403086;46.27116775512695;7.398496150970459;6082;Ayent
7402851;46.2807846069336;6.157642364501953;6644;Versoix
7402921;46.02338790893555;8.967463493347168;5192;Lugano
7401176;47.441062927246094;9.403009414672852;3203;St. Gallen
7401228;46.287994384765625;7.523836612701416;6248;Sierre
7401148;46.33247756958008;7.525665760040283;6253;Crans-Montana
7399804;46.69318008422852;7.623500347137451;767;Reutigen
7390193;47.52285385131836;8.53530216217041;53;Bülach
7358304;46.45606994628906;6.898259162902832;5886;Montreux
7394814;47.4616584777832;7.594698429107666;2772;Pfeffingen
6905055;46.68164443969727;7.837918281555176;593;Unterseen
7397899;45.87468338012695;8.946983337402344;5254;Mendrisio
7397876;47.54986190795898;8.935318946838379;4591;Matzingen
7397814;47.337501525878906;8.67275333404541;195;Maur
7397731;47.50761032104492;7.8662333488464355;2844;Buus
7397448;46.230804443359375;6.067431449890137;6630;Meyrin
7397570;46.19012069702149;6.118367671966553;6628;Lancy
7397123;47.4131965637207;8.32882308959961;4039;Remetschwil
7396569;46.188255310058594;9.0117769241333;5002;Bellinzona
7396113;47.47064208984375;9.4669828414917;3213;Goldach
7165391;47.34965133666992;8.338695526123047;4063;Bremgarten (AG)
7395783;46.10093688964844;7.071967601776123;6136;Martigny
7348722;46.20358276367188;6.149824142456055;6621;Genève
7394707;47.16715240478516;9.4756498336792;3271;Buchs (SG)
7368982;47.18914413452149;8.099066734313965;1103;Sursee
7386399;47.50036239624024;8.947936058044434;4781;Wängi
7394434;47.19649887084961;7.409370422363281;2546;Grenchen
7393894;47.31758880615234;8.586783409118652;154;Küsnacht (ZH)
7393768;47.29001998901367;8.607148170471191;152;Herrliberg
7393286;47.02824401855469;8.457565307617188;1069;Weggis
7392413;46.26830291748047;7.510767936706543;6232;Chalais
7392410;46.75115203857422;7.181581974029541;2220;Le Mouret
7307315;46.28711700439453;6.163177013397217;6644;Versoix
7382245;45.83159637451172;9.03438949584961;5250;Chiasso
7391585;46.22848892211914;7.362105846405029;6266;Sion
7308067;47.49350357055664;7.72674036026001;2829;Liestal
7192918;47.35623550415039;9.277567863464355;3007;Waldstatt
7391039;47.407474517822266;7.542811393737793;2613;Breitenbach
7391016;46.1734619140625;6.124332427978516;6628;Lancy
7390986;47.42517852783203;8.630974769592285;200;Wangen-Brüttisellen
7390888;47.42831802368164;9.375123977661133;3203;St. Gallen
7390547;47.07638549804688;7.20263147354126;751;Täuffelen
7390132;47.417423248291016;8.511545181274414;261;Zürich
7327860;47.44913864135742;9.107851028442385;3408;Uzwil
7389606;46.212928771972656;7.19890022277832;6022;Chamoson
7389596;46.66784286499024;6.7976250648498535;5678;Moudon
6893444;47.61037826538086;9.154929161071776;4666;Kemmental
7387131;47.49163818359375;7.609992980957031;2763;Arlesheim
7388691;46.92127227783203;8.475193977355957;1501;Beckenried
7304344;47.265323638916016;8.847189903259277;113;Dürnten
7388200;46.19660949707031;6.142456531524658;6621;Genève
7388098;46.211055755615234;7.345249652862549;6266;Sion
7387863;46.82403564453125;7.302127838134766;2296;Heitenried
7387924;46.779972076416016;6.63389778137207;5938;Yverdon-les-Bains
7387910;47.568477630615234;7.595007419586182;2701;Basel
7387655;46.97890472412109;7.463196754455566;362;Ittigen
6921168;47.44571685791016;8.40768814086914;85;Dänikon
7387748;47.046119689941406;8.318117141723633;1061;Luzern
7387668;47.213680267333984;7.771233081817627;329;Langenthal
7384340;46.45953750610352;6.841300487518311;5890;Vevey
7304427;47.32381439208984;9.570940017700195;3254;Oberriet (SG)
7358979;47.46778869628906;7.781501293182373;2849;Itingen
7387230;46.39980697631836;6.224734306335449;5724;Nyon
7387115;47.38391876220703;9.66005802154541;3234;Diepoldsau
7387153;47.30515670776367;8.608102798461914;151;Erlenbach (ZH)
7367733;46.51405715942383;6.666961669921875;5590;Pully
7386839;47.26052474975586;8.585098266601562;295;Horgen
7386756;47.13473510742188;7.562875270843506;552;Utzenstorf
7386194;47.60791397094727;9.297460556030272;4656;Güttingen
7386146;47.197879791259766;8.531106948852539;1701;Baar
6892927;46.59266662597656;7.049887180328369;2145;Le Pâquier (FR)
7378337;47.591922760009766;8.293619155883789;4324;Zurzach
7385125;46.16234588623047;9.00796890258789;5002;Bellinzona
7384979;47.54450607299805;7.775994300842285;4258;Rheinfelden
7381260;47.352783203125;8.279670715332031;4082;Wohlen (AG)
7376774;47.51815414428711;7.682971954345703;2831;Pratteln
7059685;46.869171142578125;9.538278579711914;3901;Chur
7225766;46.85481643676758;6.859482288360596;2054;Estavayer
7372952;47.45318984985352;8.442059516906738;83;Buchs (ZH)
7330337;46.22083282470703;6.082113265991211;6643;Vernier
7369292;47.36536407470703;7.369027614593506;6709;Courroux
7367707;47.06972122192383;7.5809454917907715;415;Lyssach
7366643;47.182716369628906;8.45849895477295;1702;Cham
7305664;47.365997314453125;8.741808891296387;198;Uster
7361715;47.01579284667969;8.318740844726562;1058;Horw
7336906;46.78295135498047;9.686240196228027;3921;Arosa
7353888;47.51353073120117;8.4730863571167;88;Neerach
7353745;47.377140045166016;8.515775680541992;261;Zürich
7205365;46.31941223144531;6.190824031829834;5712;Coppet
7348697;47.53792190551758;7.562893867492676;2765;Binningen
7348845;47.55861282348633;9.063725471496582;4881;Amlikon-Bissegg
7348665;47.36991882324219;8.545300483703613;261;Zürich
7347740;47.15074157714844;7.269634246826172;371;Biel/Bienne
6877544;47.21217727661133;9.03919792175293;3313;Kaltbrunn
7346027;47.36486053466797;8.676900863647461;194;Greifensee
7345641;47.50326156616211;8.548192977905273;51;Bachenbülach
6838720;47.39506912231445;8.082046508789062;4003;Buchs (AG)
7336569;46.155181884765625;8.773520469665527;5091;Ascona
7168140;47.49146270751953;8.280320167541504;4038;Obersiggenthal
7076848;46.85224914550781;7.578713893890381;632;Wichtrach
7151616;47.57255172729492;9.37420654296875;4436;Romanshorn
7235753;47.18659591674805;8.499632835388184;1701;Baar
7331373;47.08535003662109;8.304226875305176;1024;Emmen
7330885;47.341087341308594;8.535780906677246;261;Zürich
7329998;47.23930358886719;8.71760082244873;158;Stäfa
7328505;47.45348739624024;7.584065914154053;2772;Pfeffingen
7328086;46.18235397338867;6.15883207321167;6621;Genève
7327965;46.42962265014648;6.9142374992370605;5886;Montreux
7143991;47.46595764160156;9.048036575317385;3427;Wil (SG)
7325502;47.18015670776367;8.525683403015137;1701;Baar
6996200;47.40909957885742;9.34360694885254;3203;St. Gallen
6958080;47.56615829467773;7.5871500968933105;2701;Basel
7251647;46.9604377746582;7.460810661315918;351;Bern
7313622;47.12322235107422;7.266556739807129;733;Brügg
7314839;47.37028884887695;8.523860931396484;261;Zürich
7158045;46.957664489746094;8.027814865112305;1008;Schüpfheim
7308049;47.549110412597656;8.62169361114502;24;Buch am Irchel
7312398;46.192901611328125;6.155207633972168;6621;Genève
7164912;47.19575881958008;8.484529495239258;1708;Steinhausen
7153931;46.932579040527344;7.119632720947266;2275;Murten
7311001;47.24298858642578;8.45803451538086;9;Mettmenstetten
7031822;47.07329559326172;8.203462600708008;1093;Neuenkirch
7308984;46.00469207763672;8.961973190307617;5192;Lugano
7308507;46.88836669921875;6.765890121459961;6417;La Grande Béroche
7215315;47.012001037597656;6.967627048492432;6454;Hauterive (NE)
7044930;47.274539947509766;8.45271110534668;2;Affoltern am Albis
7305441;46.60200119018555;7.102473735809326;2124;Broc
6886127;46.7849235534668;6.8806023597717285;2027;Ménières
7198717;46.10383987426758;7.079527854919434;6136;Martigny
7465354;47.360469818115234;8.7093505859375;198;Uster
7412070;47.39036560058594;8.537823677062988;261;Zürich
7440222;47.38148498535156;7.917067050933838;2493;Lostorf
7468095;47.59971237182617;9.004555702209473;4831;Müllheim
7466969;47.1973991394043;8.492959976196289;1708;Steinhausen
7458222;47.18671798706055;8.496206283569336;1711;Zug
7458094;47.42475509643555;8.563809394836426;66;Opfikon
7448905;47.18914413452149;8.099066734313965;1103;Sursee
7444769;47.53627014160156;8.226804733276367;4047;Würenlingen
7387293;46.54753112792969;6.550137519836426;5624;Bussigny
7368738;46.804176330566406;7.1857991218566895;2306;Tafers
7334911;47.267974853515625;8.692742347717285;159;Uetikon am See
7331478;47.29627990722656;8.744394302368164;115;Gossau (ZH)
7309927;46.9251594543457;7.119154930114746;2275;Murten
7468318;46.65708160400391;7.57777214050293;762;Diemtigen
7310691;47.01804733276367;7.691171646118164;955;Lützelflüh
7468075;47.09983444213867;8.199335098266602;1093;Neuenkirch
7401564;47.456031799316406;7.607961177825928;2785;Duggingen
6503867;47.41504669189453;9.630537986755373;3231;Au (SG)
7410060;47.15876388549805;7.214279174804687;438;Orvin
7215626;47.31800842285156;8.792397499084473;121;Wetzikon (ZH)
7408034;47.3917121887207;9.391502380371094;3024;Teufen (AR)
7469315;47.55217361450195;7.554778575897217;2762;Allschwil
7438608;46.83937072753906;7.115069389343262;2235;La Sonnaz
7464008;46.41050338745117;6.23657751083374;5715;Duillier
7369375;47.33443069458008;8.055791854858398;4009;Muhen
7389853;47.7222785949707;8.664656639099121;2939;Schaffhausen
7448902;47.50712585449219;7.600415229797363;2773;Reinach (BL)
7441262;47.397891998291016;8.456594467163086;247;Schlieren
7429141;46.28947830200195;7.521520614624023;6248;Sierre
7427830;47.44465255737305;8.370655059814453;4048;Würenlos
7387848;47.32661056518555;8.796793937683105;121;Wetzikon (ZH)
7401245;47.47134017944336;8.30805778503418;4021;Baden
6783600;47.4412956237793;8.203938484191895;4104;Lupfig
7135055;47.280120849609375;8.924153327941895;120;Wald (ZH)
7448827;46.25741195678711;7.468196868896484;6248;Sierre
7424726;46.94405364990234;7.479413509368896;351;Bern
7196483;47.3148307800293;8.554044723510742;139;Rüschlikon
7469824;47.19206237792969;8.849271774291992;1344;Lachen
7458554;47.26658248901367;8.857797622680664;113;Dürnten
7441808;46.25188827514648;6.946492671966553;6153;Monthey
7436614;47.32661056518555;8.796793937683105;121;Wetzikon (ZH)
7428753;47.31782150268555;7.901051044464111;4271;Aarburg
7438638;47.29500198364258;8.242643356323242;4196;Fahrwangen
7461229;47.47134017944336;8.30805778503418;4021;Baden
7445104;47.32280349731445;8.036311149597168;4136;Holziken
7202467;47.343894958496094;8.533302307128906;261;Zürich
7410485;47.56096649169922;8.059600830078125;4170;Laufenburg
7394577;47.35750198364258;8.108957290649414;4006;Gränichen
7055194;47.085357666015625;8.132833480834961;1098;Ruswil
7396344;47.53438949584961;8.094549179077148;4170;Laufenburg
7465989;46.18901443481445;6.15930700302124;6621;Genève
6565735;47.59580612182617;8.495889663696289;61;Hüntwangen
7321548;47.2904052734375;8.560197830200195;141;Thalwil
6481625;47.40451431274414;8.402215957641602;243;Dietikon
7348578;47.14619827270508;7.275872230529785;371;Biel/Bienne
7191123;47.27474212646485;8.722920417785645;157;Oetwil am See
7457667;47.05038070678711;8.344134330749512;1061;Luzern
7456516;46.10503768920898;7.0787858963012695;6136;Martigny
7459782;47.40618515014648;8.405805587768555;243;Dietikon
7408286;47.3507080078125;9.076001167297363;3395;Bütschwil-Ganterschwil
7370545;47.555702209472656;7.846854209899902;4254;Möhlin
7463213;47.492584228515625;9.456276893615724;4421;Horn
7442774;46.54216766357422;6.596678733825684;5591;Renens (VD)
7431434;47.50142288208008;8.599289894104004;56;Embrach
7419997;46.51110458374024;6.668332576751709;5590;Pully
7413558;47.55132675170898;9.146686553955078;4911;Bürglen (TG)
7464240;47.36550521850586;8.002216339111328;2583;Schönenwerd
7395915;46.66762161254883;6.313983917236328;5873;Le Lieu
7331158;47.21672439575195;7.593331336975098;2527;Luterbach
7466370;46.99361801147461;8.308488845825195;1507;Hergiswil (NW)
7438273;47.33289337158203;8.812164306640625;121;Wetzikon (ZH)
7428589;47.25322723388672;6.988614082336426;6757;Saignelégier
7408369;47.52069854736328;8.333653450012207;4312;Lengnau (AG)
7435747;46.19469833374024;7.309387683868408;6024;Nendaz
7434156;46.180912017822266;7.806460380554199;6292;St. Niklaus
7447766;47.26431274414063;8.41588306427002;10;Obfelden
7431753;46.68750762939453;6.562699794769287;5746;Bavois
7205332;46.23082733154297;7.371189594268799;6266;Sion
7341498;46.18724822998047;6.157598972320557;6621;Genève
7421990;47.48678970336914;7.5223870277404785;2481;Witterswil
7368248;47.38883209228516;8.057489395141602;4001;Aarau
7400552;46.81528854370117;6.978943824768066;2029;Montagny (FR)
7275175;47.39078140258789;8.661730766296387;199;Volketswil
6962256;47.39778518676758;8.212233543395996;4205;Othmarsingen
7448553;47.569374084472656;8.24160385131836;4303;Böttstein
7422643;47.49980163574219;8.752470016479492;230;Winterthur
7450062;47.19573974609375;8.694278717041016;1323;Wollerau
7361420;46.42007446289063;6.2705278396606445;5721;Gland
7312380;47.15597152709961;8.163945198059082;1084;Eich
7434710;46.45209503173828;6.905647277832031;5886;Montreux
7459863;46.392391204833984;6.2427239418029785;5725;Prangins
7415697;47.56196975708008;7.573602199554443;2701;Basel
7369234;47.04065704345703;9.066396713256836;1632;Glarus
7211827;47.04960250854492;8.30368423461914;1061;Luzern
6195396;47.397586822509766;8.177674293518066;4204;Niederlenz
7340658;47.0274772644043;7.442900657653809;546;Münchenbuchsee
7458297;46.26702499389648;6.952341079711914;6152;Collombey-Muraz
7432882;47.53030014038086;9.36509609222412;4411;Egnach
7353063;47.30276870727539;8.846395492553711;117;Hinwil
7290995;46.009986877441406;8.940712928771973;5196;Massagno
7417339;46.47458267211914;6.417994976043701;5636;Etoy
7247030;46.4306526184082;6.911583423614502;5886;Montreux
7435306;47.51799392700195;8.762868881225586;230;Winterthur
7434408;46.77458572387695;9.217342376708984;3619;Ilanz/Glion
7440189;46.313941955566406;7.5198493003845215;6253;Crans-Montana
7405225;46.54668045043945;6.586008071899414;5583;Crissier
7397641;46.54110336303711;6.606310844421387;5589;Prilly
7316914;46.21297454833984;6.035090923309326;6638;Satigny
7464489;47.20022964477539;7.58754825592041;2517;Derendingen
7103156;47.65269088745117;9.14466381072998;4696;Tägerwilen
7447764;47.12994766235352;7.261157035827637;371;Biel/Bienne
7453734;47.29707336425781;7.944501399993896;4280;Oftringen
6984599;47.47886657714844;8.998560905456543;4746;Münchwilen (TG)
7403169;47.09304428100586;9.07247829437256;1630;Glarus Nord
7467276;47.70847702026367;8.641925811767578;2939;Schaffhausen
7464883;47.17877960205078;8.547588348388672;1701;Baar
7467861;47.39164352416992;8.48184871673584;261;Zürich
7265237;46.22019958496094;6.145626068115234;6621;Genève
7395318;47.48678970336914;7.5223870277404785;2481;Witterswil
7467443;46.992557525634766;6.935381412506104;6458;Neuchâtel
7461582;46.00816345214844;8.945061683654785;5192;Lugano
7132414;46.00469207763672;8.961973190307617;5192;Lugano
6501943;47.07497024536133;8.270981788635254;1024;Emmen
7448637;46.8980827331543;7.139580726623535;2257;Cressier (FR)
7388225;47.332122802734375;8.474865913391113;14;Wettswil am Albis
7468774;47.56208801269531;9.377753257751465;4436;Romanshorn
7413402;47.18965530395508;8.718681335449219;1323;Wollerau
7407344;46.935916900634766;8.275849342346191;1401;Alpnach
7449047;47.50946044921875;7.521801471710205;2764;Biel-Benken
7408422;47.259071350097656;8.869436264038086;118;Rüti (ZH)
7452056;47.52244567871094;7.709798812866211;2831;Pratteln
7135516;47.231224060058594;7.769283771514893;321;Aarwangen
7455570;46.16681289672852;8.80155086517334;5113;Locarno
7016981;47.17383575439453;8.445862770080566;1703;Hünenberg
4968077;47.55506134033203;7.553959846496582;2762;Allschwil
7448026;46.69402313232422;7.617878913879394;767;Reutigen
7413458;45.833194732666016;9.03209400177002;5250;Chiasso
7412652;47.44287490844727;9.252750396728516;3443;Gossau (SG)
7445395;47.271278381347656;8.578899383544922;137;Oberrieden
7412410;47.42078399658203;9.087719917297363;3405;Jonschwil
7407389;47.46183776855469;8.339296340942383;4045;Wettingen
7223519;46.167476654052734;8.785333633422852;5113;Locarno
7344783;47.41658020019531;9.238852500915527;3443;Gossau (SG)
7411815;46.54291534423828;6.580958366394043;5583;Crissier
6186508;47.03335189819336;8.275190353393555;1059;Kriens
6319055;47.64026641845703;9.195489883422852;4671;Kreuzlingen
7461665;46.62252807617188;6.850462913513184;2102;Ursy
7457747;47.04194259643555;7.264009952545166;302;Bargen (BE)
7395904;46.53056335449219;6.589847087860107;5591;Renens (VD)
7431474;46.48163986206055;6.370368480682373;5427;Féchy
6572539;47.56876373291016;7.60114860534668;2701;Basel
7468820;47.34732818603516;8.64144515991211;195;Maur
7452239;47.49113464355469;8.71247673034668;230;Winterthur
7384853;47.20117950439453;8.01815414428711;1125;Dagmersellen
7406522;46.26042938232422;7.3689165115356445;6265;Savièse
7396760;47.46530532836914;8.470528602600098;90;Niederhasli
7467048;47.1786003112793;7.381134986877441;387;Lengnau (BE)
7421292;47.41666793823242;8.508293151855469;261;Zürich
7406413;46.62107467651367;6.548577785491943;5480;Daillens
7467857;47.27652359008789;7.836384296417236;2575;Fulenbach
6833027;47.52412796020508;8.588373184204102;56;Embrach
7250849;47.24943923950195;8.759988784790039;153;Hombrechtikon
7417201;47.54973983764648;7.558028221130371;2701;Basel
7412135;47.08535003662109;8.304226875305176;1024;Emmen
7409002;47.32381439208984;9.570940017700195;3254;Oberriet (SG)
7408902;47.456573486328125;8.5946626663208;62;Kloten
7446337;47.40003204345703;8.623327255249023;191;Dübendorf
7452060;47.45209503173828;8.321229934692383;4034;Neuenhof
7435301;47.48895263671875;7.50662899017334;2471;Bättwil
7217509;46.1876335144043;6.159635543823242;6621;Genève
7309807;46.92572021484375;7.3785576820373535;355;Köniz
7442006;47.04949951171875;6.739141941070557;6436;Le Locle
7455618;47.4361457824707;9.392376899719238;3203;St. Gallen
7247139;47.12004089355469;8.417642593383789;1064;Meierskappel
7435182;46.506591796875;6.687565326690674;5606;Lutry
7432731;47.09047317504883;8.463197708129883;1331;Küssnacht (SZ)
7224497;46.177207946777344;8.811295509338379;5118;Minusio
7456552;46.12725830078125;8.911067962646484;5238;Monteceneri
7453537;47.2985725402832;8.013264656066895;4286;Uerkheim
7446563;47.443321228027344;8.332561492919922;4034;Neuenhof
7428727;47.19729995727539;8.678653717041016;138;Richterswil
7253219;47.555782318115234;7.630398750305176;2766;Birsfelden
7368144;46.63892364501953;7.066684722900391;2148;Riaz
7447363;47.180641174316406;7.795068740844727;332;Madiswil
7425640;47.18157577514648;8.485465049743652;1711;Zug
7470823;47.14794921875;8.39380931854248;4231;Dietwil
7432035;47.04850006103516;8.257615089416504;1061;Luzern
7421865;47.322540283203125;8.8612060546875;111;Bäretswil
7436475;47.38057708740234;8.661206245422363;197;Schwerzenbach
7448494;46.759037017822266;7.619719982147217;942;Thun
7415045;47.47105407714844;9.508240699768066;3216;Rorschacherberg
7468218;46.32807922363281;8.004179954528809;6007;Naters
7210881;47.12179946899414;7.25720739364624;733;Brügg
7456983;46.42854309082031;6.294844150543213;5855;Dully
7375426;47.43610382080078;8.569188117980957;66;Opfikon
7447990;47.37253189086914;9.137385368347168;3396;Neckertal
7447112;47.41933822631836;9.61533260345459;3233;Berneck
7446895;47.64375305175781;9.16238021850586;4671;Kreuzlingen
7442071;46.53316116333008;6.563676834106445;5635;Ecublens (VD)
6921803;47.18378829956055;7.700057983398437;979;Herzogenbuchsee
7447872;47.42912673950195;9.315229415893556;3442;Gaiserwald
7463803;47.35415267944336;8.16862678527832;4209;Seon
7470983;46.629493713378906;7.700523853302002;567;Reichenbach im Kandertal
7464031;46.78711700439453;6.638055324554443;5938;Yverdon-les-Bains
7449842;46.540130615234375;6.6679887771606445;5584;Epalinges
7366879;47.292518615722656;8.697571754455566;192;Egg
7449807;47.40451431274414;8.402215957641602;243;Dietikon
7450468;47.024513244628906;8.308039665222168;1058;Horw
7367514;47.34919357299805;8.265459060668945;4082;Wohlen (AG)
7449124;46.19213104248047;6.102458477020264;6631;Onex
7326795;47.53242111206055;7.808337688446045;4253;Magden
6929374;46.431785583496094;6.219706535339356;5718;Genolier
7267902;47.35062789916992;8.354018211364746;4083;Zufikon
7457533;47.473731994628906;7.594091892242432;2761;Aesch (BL)
7452315;46.5291748046875;6.572793483734131;5627;Chavannes-près-Renens
7449068;47.27694320678711;8.451090812683105;2;Affoltern am Albis
7374878;47.0381088256836;7.629400253295898;404;Burgdorf
7449284;47.354148864746094;8.560637474060059;261;Zürich
7101977;47.2160758972168;8.57227897644043;1701;Baar
7438703;46.778465270996094;6.603545188903809;5904;Chamblon
7432967;45.99552154541016;8.861557006835938;5181;Curio
7428417;47.494510650634766;9.282541275024414;4486;Hauptwil-Gottshaus
7431663;47.11505889892578;8.60737133026123;1709;Unterägeri
7297568;47.18914413452149;8.099066734313965;1103;Sursee
7438188;47.355445861816406;9.454948425292969;3022;Gais
6990036;46.93124008178711;7.539283275604248;627;Worb
7408429;47.325225830078125;7.595454216003418;2421;Aedermannsdorf
7035432;47.38749313354492;7.601929664611816;2622;Zullwil
6891872;47.19889450073242;7.581460952758789;2517;Derendingen
6381979;47.44189453125;8.838824272155762;228;Turbenthal
7308738;47.33984756469727;8.025723457336426;4276;Kölliken
7220912;46.79477310180664;9.328445434570312;3672;Safiental
7303744;46.93570327758789;7.470051288604736;351;Bern
7448406;47.56969833374024;8.259573936462402;4304;Döttingen
7418649;47.38392639160156;8.530077934265137;261;Zürich
7369100;47.32719039916992;8.53749942779541;135;Kilchberg (ZH)
7452320;47.49268341064453;8.2627592086792;4044;Untersiggenthal
7451798;47.55688095092773;8.501038551330566;58;Glattfelden
7406795;47.54909896850586;9.303411483764648;4461;Amriswil
6152349;45.98919296264648;8.953970909118652;5210;Paradiso
7432824;46.28388214111328;6.237672805786133;6602;Anières
7253527;47.43056106567383;8.390229225158691;246;Oetwil an der Limmat
7452305;46.1838493347168;6.138751029968262;6608;Carouge (GE)
7448945;46.82160949707031;6.950460910797119;5822;Payerne
7435899;47.43354034423828;8.56632137298584;66;Opfikon
7419430;46.25979232788086;7.385937213897705;6263;Grimisuat
7328457;47.40839767456055;9.627081871032717;3231;Au (SG)
7467501;47.24288940429688;7.76718807220459;321;Aarwangen
7319170;47.5149040222168;9.034826278686523;4776;Tobel-Tägerschen
7211771;47.04960250854492;8.30368423461914;1061;Luzern
7441802;47.312530517578125;7.925286769866943;4280;Oftringen
7452190;46.212100982666016;6.150782585144043;6621;Genève
6475241;46.19804763793945;6.180633544921875;6612;Chêne-Bougeries
7428955;47.42409896850586;8.302850723266602;4035;Niederrohrdorf
7448862;47.03984451293945;7.725533485412598;956;Rüegsau
7390040;46.262237548828125;6.211541652679443;6616;Collonge-Bellerive
7353365;46.22125244140625;6.106822967529297;6643;Vernier
7438388;47.08109664916992;8.115100860595703;1098;Ruswil
7429069;47.32210540771485;8.795525550842285;121;Wetzikon (ZH)
7427667;46.895809173583984;8.252521514892578;1407;Sarnen
6699646;47.42254257202149;8.601168632507324;69;Wallisellen
7470175;47.43439102172852;8.285811424255371;4027;Fislisbach
5095973;46.803932189941406;7.159600257873535;2196;Fribourg
7435245;47.17583847045898;7.333335399627685;392;Pieterlen
7412938;47.642486572265625;9.200305938720703;4671;Kreuzlingen
7447275;47.13800811767578;7.802335262298584;338;Rohrbach
7388208;47.20307922363281;8.754949569702148;1322;Freienbach
7431951;46.65663528442383;7.060013771057129;2140;Marsens
7422656;47.017208099365234;6.852014541625977;6487;Val-de-Ruz
7384494;47.42945098876953;8.574441909790039;66;Opfikon
7346725;47.04121398925781;8.180557250976562;1062;Malters
7427735;47.502471923828125;7.533202648162842;2775;Therwil
7466740;46.93618392944336;7.361145973205566;351;Bern
7233976;46.302711486816406;7.534835815429687;6254;Noble-Contrée
7433459;46.543922424316406;6.661056041717529;5584;Epalinges
7451005;46.20345687866211;7.266893863677978;6021;Ardon
7318093;47.52849197387695;7.649183750152588;2770;Muttenz
7391498;47.38675308227539;8.472709655761719;261;Zürich
7408338;46.48137283325195;6.456033706665039;5646;Saint-Prex
7328239;46.52409362792969;6.686784744262695;5581;Belmont-sur-Lausanne
7461165;47.07379150390625;7.304530620574951;306;Lyss
7403717;46.84401321411133;7.195863246917725;2293;Düdingen
7426650;47.3784408569336;8.517563819885254;261;Zürich
7417194;46.95025634765625;7.486100196838379;363;Ostermundigen
7212569;47.325477600097656;8.52845287322998;131;Adliswil
7441996;47.45094680786133;7.741872310638428;2823;Bubendorf
7438393;47.1514778137207;9.443487167358398;3271;Buchs (SG)
7448950;47.45352554321289;9.163141250610352;3424;Oberbüren
7424699;47.09286117553711;7.152724266052246;756;Twann-Tüscherz
7440948;47.54672622680664;7.763553619384766;4258;Rheinfelden
7408247;47.03570938110352;8.262263298034668;1059;Kriens
7154837;47.17219161987305;9.47128677368164;3271;Buchs (SG)
6960657;47.47156524658203;9.1085786819458;3426;Zuzwil (SG)
7450190;47.44486618041992;8.653716087341309;64;Nürensdorf
7326784;46.9604377746582;7.460810661315918;351;Bern
7426693;47.22211456298828;8.660393714904785;293;Wädenswil
7395457;46.024044036865234;8.977727890014648;5192;Lugano
7449218;46.26365280151367;7.39572286605835;6082;Ayent
7357374;46.609500885009766;6.584312438964844;5473;Boussens
7025869;47.38689422607422;8.47549819946289;261;Zürich
6700749;47.42692565917969;8.581014633178711;66;Opfikon
7295293;46.5238151550293;6.630751609802246;5586;Lausanne
5670069;46.6417236328125;6.635250091552734;5518;Echallens
6713283;47.4208869934082;8.598831176757812;69;Wallisellen
7390717;47.33602142333984;8.300484657287598;4240;Waltenschwil
7443156;47.55992126464844;8.849560737609863;4571;Gachnang
7418362;47.35990524291992;8.367229461669922;4062;Berikon
7448128;46.619388580322266;7.023364067077637;2160;Vuadens
7427404;47.29600524902344;8.315159797668457;4228;Boswil
7254933;46.8236198425293;7.097782135009766;2175;Belfaux
6937714;46.960445404052734;7.482792854309082;363;Ostermundigen
7326003;47.596622467041016;9.034903526306152;4951;Wigoltingen
7356587;47.40576553344727;8.005252838134766;2503;Erlinsbach (SO)
7304196;47.17559051513672;8.518386840820312;1711;Zug
7427829;47.43383026123047;9.639896392822266;3231;Au (SG)
7407792;46.19073867797852;6.042488098144531;6601;Aire-la-Ville
7449279;47.47687530517578;9.523815155029297;3216;Rorschacherberg
7424934;47.408790588378906;9.636741638183594;3238;Widnau
7408625;46.206539154052734;6.143504142761231;6621;Genève
7447697;47.31787490844727;7.967055797576904;4283;Safenwil
7461424;47.24016952514648;8.072345733642578;1104;Triengen
6604066;47.27547073364258;7.399378776550293;692;Eschert
6346938;47.54596328735352;8.187432289123535;4105;Mandach
7467989;47.11355972290039;7.116893291473389;726;Plateau de Diesse
7408928;46.49266815185547;6.39415454864502;5422;Aubonne
7337120;46.15784454345703;7.259457111358643;6134;Isérables
7431689;47.2099723815918;7.454868316650391;2556;Selzach
7428503;47.27447128295898;8.341160774230957;4236;Muri (AG)
7305226;47.54049682617188;8.47518539428711;100;Stadel
7407906;47.429443359375;8.693133354187012;296;Illnau-Effretikon
7428928;47.32075500488281;8.379668235778809;4079;Unterlunkhofen
7411827;47.21171569824219;7.787830829620361;329;Langenthal
7339899;47.46352005004883;8.953970909118652;4724;Eschlikon
7428158;46.82876205444336;7.296164035797119;2296;Heitenried
7408453;47.565059661865234;9.12400245666504;4946;Weinfelden
7243022;47.4282455444336;8.552592277526855;261;Zürich
7412465;47.36946868896485;8.822184562683105;173;Hittnau
6586261;47.055301666259766;7.619278907775879;404;Burgdorf
6805865;47.19814300537109;8.77275276184082;1322;Freienbach
7412124;47.354148864746094;8.560637474060059;261;Zürich
7442225;47.14054489135742;8.190778732299805;1102;Sempach
7403545;47.298370361328125;8.30258846282959;4228;Boswil
7408091;47.51520538330078;8.532283782958984;53;Bülach
7392283;46.830360412597656;6.941364765167236;5822;Payerne
7368381;46.17584609985352;8.82076358795166;5118;Minusio
7296486;47.42109680175781;9.353790283203123;3203;St. Gallen
7420065;47.41684722900391;8.507415771484375;261;Zürich
7455253;46.90496826171875;7.076268196105957;5458;Faoug
7388230;47.61229705810547;8.534187316894531;67;Rafz
7470891;46.73106002807617;6.534222602844238;5757;Orbe
7452148;47.50346755981445;7.602402210235596;2773;Reinach (BL)
7448949;47.43534851074219;8.470026016235352;96;Regensdorf
7467127;47.46531677246094;9.56031322479248;3237;Thal
6870110;46.23722839355469;6.124135494232178;6623;Le Grand-Saconnex
7418334;46.10213851928711;7.093549728393555;6136;Martigny
7238523;46.20204925537109;8.745516777038574;5324;Avegno Gordevio
7443965;46.18916320800781;6.119615077972412;6628;Lancy
7432563;47.53907775878906;8.729059219360352;227;Seuzach
6685338;47.29598617553711;8.22612476348877;4202;Meisterschwanden
7463014;46.74894714355469;9.443975448608398;3673;Domleschg
7427940;46.952110290527344;7.5395894050598145;359;Vechigen
7444195;47.353614807128906;8.71741771697998;198;Uster
7443680;47.15349960327149;8.229975700378418;1088;Hildisrieden
7378232;47.114845275878906;9.185423851013184;1630;Glarus Nord
7469513;46.42976760864258;6.9117937088012695;5886;Montreux
7418514;47.55194854736328;7.622346878051758;2766;Birsfelden
7212177;47.49962615966797;8.948771476745605;4781;Wängi
7414746;46.70744705200195;8.861963272094727;3982;Disentis/Mustér
7413052;46.64023971557617;7.053563594818115;2148;Riaz
7408553;45.97914505004883;8.918136596679688;5236;Collina d'Oro
7431751;47.58742141723633;8.144447326660156;4176;Schwaderloch
7445767;47.38744735717773;8.535216331481934;261;Zürich
7408204;47.19295120239258;8.851675987243652;1344;Lachen
7082725;46.809078216552734;9.399999618530272;3721;Bonaduz
7351579;47.54212188720703;9.304497718811035;4461;Amriswil
7252798;47.38977813720703;8.516196250915527;261;Zürich
7435444;47.41460037231445;8.622008323669434;54;Dietlikon
7435153;46.96220397949219;6.862961292266846;6416;Milvignes
7334272;47.49163818359375;7.609992980957031;2763;Arlesheim
7314538;46.85967254638672;9.529783248901367;3901;Chur
7446806;47.33385467529297;8.385348320007324;4074;Oberwil-Lieli
6977447;47.69715118408203;8.623262405395508;2939;Schaffhausen
7404279;46.796295166015625;7.144428253173828;2196;Fribourg
7206297;47.111473083496094;6.833404064178467;6421;La Chaux-de-Fonds
7375202;47.123966217041016;9.052689552307127;1630;Glarus Nord
7349075;46.612884521484375;6.524823188781738;5495;Penthalaz
7409558;47.42212677001953;8.546873092651367;261;Zürich
7408907;46.52994537353516;6.567632675170898;5635;Ecublens (VD)
7231131;46.24600601196289;6.20961332321167;6616;Collonge-Bellerive
7438835;47.41233825683594;8.598610877990723;69;Wallisellen
7243014;47.30953598022461;8.057548522949219;4144;Schöftland
7417494;46.10651779174805;7.924128532409668;6290;Saas-Fee
7170092;47.28130340576172;8.613327980041504;156;Meilen
7174135;47.596073150634766;8.955970764160156;4841;Pfyn
7421974;47.38887786865234;8.136069297790527;4200;Hunzenschwil
7442446;47.55002975463867;9.36015510559082;4441;Salmsach
7391308;46.28012466430664;6.165925979614258;6644;Versoix
7387918;47.23921203613281;8.928674697875977;3342;Eschenbach (SG)
6932092;47.18791961669922;8.720120429992676;1323;Wollerau
7442320;47.36298751831055;7.352971076965332;6711;Delémont
7357223;46.743839263916016;7.619317054748535;942;Thun
7467939;47.37661743164063;8.296443939208984;4072;Niederwil (AG)
7466088;47.41486740112305;9.436922073364258;3023;Speicher
7458668;47.51398468017578;7.771409034729004;2821;Arisdorf
7426872;47.38977813720703;8.516196250915527;261;Zürich
7417662;47.61394882202149;8.723015785217285;37;Ossingen
7394593;47.25633239746094;8.591998100280762;295;Horgen
7388045;47.51286697387695;8.016430854797363;4163;Frick
7372050;46.546363830566406;6.575692176818848;5583;Crissier
7431580;47.468997955322266;8.33487319946289;4045;Wettingen
7441640;46.81615829467773;6.939088821411133;5822;Payerne
7389750;47.32552719116211;8.475871086120605;3;Bonstetten
7373851;46.2370491027832;6.194521903991699;6616;Collonge-Bellerive
7353246;47.15021514892578;8.889097213745117;1342;Galgenen
7319732;47.48670959472656;7.549232482910156;2768;Ettingen
7094084;47.48256301879883;8.55899715423584;72;Winkel
6547207;47.22357940673828;8.268829345703125;1030;Hitzkirch
6874423;47.37489318847656;8.486019134521484;261;Zürich
7326219;46.21176528930664;6.127228736877441;6621;Genève
7388447;46.554500579833984;6.829465866088867;5805;Oron
6653605;47.290435791015625;8.091859817504883;4142;Schlossrued
7468379;46.628414154052734;7.1671247482299805;2163;Val-de-Charmey
7435029;45.98919296264648;8.953970909118652;5210;Paradiso
5930572;46.44340896606445;6.890682220458984;5886;Montreux
7471083;47.32046508789063;8.588306427001953;154;Küsnacht (ZH)
7388019;47.5753173828125;8.625300407409668;43;Volken
7331193;47.19517135620117;8.385634422302246;4239;Sins
7456549;47.20153045654297;9.017251968383787;3312;Benken (SG)
7466849;47.04253768920898;8.321252822875977;1061;Luzern
7403540;46.0375862121582;8.934314727783203;5162;Cadempino
7358748;47.21174240112305;8.175146102905273;1081;Beromünster
7331323;47.44497299194336;7.837918281555176;2845;Diepflingen
7386489;46.835105895996094;7.537947177886963;866;Gerzensee
6664536;46.26874542236328;6.959034442901611;6152;Collombey-Muraz
7408695;47.5030517578125;7.733860492706299;2825;Füllinsdorf
7425305;46.05257797241211;8.947518348693848;5208;Origlio
7347841;47.32501220703125;7.79749870300293;2401;Egerkingen
7203943;47.195648193359375;8.887177467346191;1349;Wangen (SZ)
7413214;47.18753433227539;8.849197387695312;1344;Lachen
7179760;47.3707160949707;8.63912296295166;193;Fällanden
7417309;46.52523422241211;6.613204479217529;5586;Lausanne
7413254;47.36716842651367;7.354982852935791;6711;Delémont
7407886;46.958045959472656;7.503283500671387;363;Ostermundigen
7280697;47.52632141113281;7.62083101272583;2769;Münchenstein
7457910;47.45029067993164;9.62854290008545;3236;St. Margrethen
7418590;47.47233963012695;7.600956439971924;2761;Aesch (BL)
7401183;47.55437850952149;7.803792476654053;4258;Rheinfelden
7270339;47.33211517333984;7.834421157836914;2579;Hägendorf
7441995;47.62960433959961;8.726542472839355;41;Truttikon
7387214;47.067474365234375;7.302119731903076;306;Lyss
7467329;47.57413482666016;8.5632905960083;2933;Buchberg
7468083;46.63788604736328;6.630859375;5518;Echallens
7040042;47.360469818115234;8.7093505859375;198;Uster
7304798;47.4151725769043;8.527069091796875;261;Zürich
7405686;46.50749588012695;6.717723846435547;5613;Bourg-en-Lavaux
5265888;46.25666046142578;7.424482822418213;6246;Saint-Léonard
5115624;46.5303840637207;6.590330600738525;5591;Renens (VD)
7396804;47.54986190795898;8.935318946838379;4591;Matzingen
7415166;46.67814254760742;7.696895122528076;768;Spiez
7431293;46.74319076538086;9.554579734802246;3506;Vaz/Obervaz
7290032;47.39101028442383;9.226021766662598;3402;Flawil
7407596;47.400123596191406;9.298995018005373;3203;St. Gallen
5966004;46.958045959472656;7.503283500671387;363;Ostermundigen
6087546;47.24749755859375;8.910276412963867;3342;Eschenbach (SG)
7367252;47.20298767089844;8.682816505432129;138;Richterswil
7401648;47.407222747802734;8.116400718688965;4206;Rupperswil
6030211;47.37739181518555;8.492877960205078;261;Zürich
7440556;47.19779586791992;8.737707138061523;1322;Freienbach
7367405;47.45450973510742;9.415693283081056;3214;Mörschwil
7328451;47.17877960205078;8.547588348388672;1701;Baar
7310613;47.365867614746094;8.531871795654297;261;Zürich
7224878;47.5545539855957;7.60508918762207;2701;Basel
7136260;47.51632690429688;9.436722755432127;4401;Arbon
6765973;47.54757308959961;7.62212324142456;2701;Basel
7465866;47.63557052612305;9.009747505187988;4816;Homburg
7420641;47.29933166503906;9.447895050048828;3112;Schwende-Rüte
7413155;45.98919296264648;8.953970909118652;5210;Paradiso
7116804;47.43402099609375;9.384572982788086;3203;St. Gallen
7408399;47.24052810668945;8.552995681762695;4;Hausen am Albis
7406518;47.34373474121094;8.607398986816406;161;Zollikon
7173241;46.92535781860352;7.458241939544678;355;Köniz
7428716;47.4019775390625;9.296037673950195;3203;St. Gallen
7435002;47.34742736816406;7.896120071411133;2581;Olten
7286607;47.377532958984375;8.500199317932129;261;Zürich
7347014;47.50056076049805;8.695487976074219;230;Winterthur
7452171;47.44045639038086;8.478424072265625;96;Regensdorf
7466780;46.94752502441406;7.393219470977783;351;Bern
7187786;47.58108901977539;7.645190238952637;2703;Riehen
6586833;46.990272521972656;6.929505825042725;6458;Neuchâtel
7414883;46.15159606933594;8.941725730895996;5003;Cadenazzo
7354497;47.51085662841797;7.546404361724853;2771;Oberwil (BL)
7415813;46.54425430297852;6.584406852722168;5591;Renens (VD)
7466838;47.05868148803711;8.38755989074707;1063;Meggen
6353738;47.42109680175781;9.353790283203123;3203;St. Gallen
6958762;46.54345703125;6.639813423156738;5586;Lausanne
7331507;47.25558090209961;8.60465145111084;295;Horgen
7467421;46.93439483642578;7.297460556030273;668;Mühleberg
7408287;47.65529251098633;9.173479080200195;4671;Kreuzlingen
7400489;47.45348739624024;7.584065914154053;2772;Pfeffingen
7413579;47.00578689575195;6.905125141143799;6458;Neuchâtel
7459960;45.83859634399414;9.027077674865724;5250;Chiasso
7460505;47.189571380615234;8.839953422546387;1341;Altendorf
7269798;46.804176330566406;7.1857991218566895;2306;Tafers
7304346;46.24875259399414;9.149270057678224;3832;Grono
7097735;47.4638900756836;8.345504760742188;4045;Wettingen
6001884;47.51006317138672;8.682388305664062;230;Winterthur
7203478;47.37554931640625;8.524855613708496;261;Zürich
7433432;47.24298858642578;8.45803451538086;9;Mettmenstetten
7430969;47.002723693847656;9.526471138000488;3953;Maienfeld
7428682;47.3388557434082;8.676209449768066;195;Maur
7408534;47.22682189941406;8.815750122070312;3340;Rapperswil-Jona
7273166;47.27594757080078;8.831408500671387;113;Dürnten
7410293;47.480506896972656;8.4818115234375;90;Niederhasli
7427426;47.38462448120117;9.65333366394043;3234;Diepoldsau
7348479;47.39061737060547;8.859472274780273;297;Bauma
7291746;46.72031021118164;7.090192317962647;2236;Gibloux
6613981;46.61848831176758;6.508857727050781;5477;Cossonay
7410749;47.2526741027832;8.87257194519043;118;Rüti (ZH)
7327858;47.56147766113281;8.06170654296875;4170;Laufenburg
6779761;47.06319808959961;7.480179786682129;541;Iffwil
7306363;47.476375579833984;8.22028636932373;4123;Windisch
7304178;47.01566696166992;7.05809211730957;495;Gampelen
7387102;47.349456787109375;8.52877140045166;261;Zürich
7348556;47.43556213378906;9.14113998413086;3408;Uzwil
7465858;46.68316650390625;7.691052436828613;768;Spiez
7328517;47.46074676513672;7.811654567718506;2861;Sissach
7246787;47.51154708862305;7.549491405487059;2771;Oberwil (BL)
7428251;46.23554611206055;7.360090732574463;6266;Sion
7441909;47.50856018066406;8.030030250549316;4163;Frick
7328310;47.0233268737793;8.2913818359375;1059;Kriens
7329633;47.01832580566406;8.312270164489746;1058;Horw
7304823;47.32465362548828;9.57425022125244;3254;Oberriet (SG)
7421256;47.27891540527344;8.767963409423828;116;Grüningen
7419830;46.87122344970703;8.241549491882324;1406;Sachseln
7343396;47.28338623046875;7.932114601135254;4285;Strengelbach
7087122;47.26026916503906;7.950956344604492;4274;Brittnau
6861988;46.64408493041992;6.476365566253662;5476;Chevilly
7347194;47.42905426025391;9.118157386779783;3407;Oberuzwil
7177688;47.50666809082031;8.69704532623291;230;Winterthur
7415431;47.051795959472656;8.553319931030273;1362;Arth
7408103;47.40121078491211;8.609280586242676;191;Dübendorf
7443490;47.32752990722656;8.033712387084961;4136;Holziken
7450103;47.4151725769043;8.527069091796875;261;Zürich
7037135;47.373172760009766;8.562169075012207;261;Zürich
7426558;47.49300384521485;8.242206573486328;4029;Gebenstorf
7405771;47.56635665893555;7.5754594802856445;2701;Basel
7127467;47.68596267700195;8.751985549926758;4545;Diessenhofen
4281999;47.13959884643555;8.453274726867676;1707;Risch
7407769;47.39164352416992;8.48184871673584;261;Zürich
7397675;47.654876708984375;8.975504875183105;4864;Steckborn
7418515;46.48940658569336;7.262267589569092;843;Saanen
7348378;46.96683120727539;7.1952948570251465;2265;Kerzers
7379607;47.21725463867188;8.266400337219238;1030;Hitzkirch
7468141;47.3388557434082;8.486018180847168;13;Stallikon
7453322;47.083404541015625;8.637043952941895;1371;Sattel
6977600;47.46073913574219;9.379112243652344;3204;Wittenbach
6352863;46.78218078613281;9.542352676391602;3911;Churwalden
7408489;47.12892150878906;8.196388244628906;1102;Sempach
7467868;47.48394775390625;8.326437950134277;4026;Ennetbaden
7429765;47.50355529785156;8.72974967956543;230;Winterthur
7431963;47.64026641845703;9.195489883422852;4671;Kreuzlingen
7441225;47.52162170410156;8.794666290283203;298;Wiesendangen
7405881;47.25997924804688;8.598672866821289;295;Horgen
7461204;46.436973571777344;6.220951080322266;5718;Genolier
7307591;47.330711364746094;8.47457218170166;14;Wettswil am Albis
7469617;46.645389556884766;6.623364448547363;5518;Echallens
7394419;47.337738037109375;8.016118049621582;4276;Kölliken
7406086;46.17490005493164;6.1211018562316895;6628;Lancy
7452079;47.40140151977539;9.63974952697754;3238;Widnau
7421338;46.00137710571289;8.897388458251953;5141;Agno
7341640;46.34173583984375;6.163456439971924;5707;Chavannes-de-Bogis
7388254;47.50811767578125;8.698348999023438;230;Winterthur
6858616;47.17818832397461;8.455216407775879;1702;Cham
7455508;47.458683013916016;8.327559471130371;4045;Wettingen
5987573;47.18450164794922;8.37462329864502;4239;Sins
5292152;46.32294845581055;7.999883651733398;6007;Naters
7450509;47.37527847290039;9.193680763244627;3401;Degersheim
7212079;47.19073486328125;8.869291305541992;1344;Lachen
6798685;47.23815155029297;8.253796577453613;1030;Hitzkirch
7448973;46.29124069213867;6.978994846343994;5409;Ollon
7439708;47.07753753662109;8.097643852233887;1098;Ruswil
7429109;47.408294677734375;9.628572463989258;3231;Au (SG)
6111059;47.47064208984375;9.4669828414917;3213;Goldach
7399710;47.51632308959961;8.63266372680664;224;Pfungen
7431917;46.19377899169922;6.20654821395874;6640;Thônex
7295421;46.20063018798828;6.103504657745361;6643;Vernier
7441151;46.687782287597656;7.850420951843262;593;Unterseen
7416763;47.56557083129883;9.122321128845217;4946;Weinfelden
7316879;47.286808013916016;8.622968673706055;152;Herrliberg
7173529;46.27156066894531;6.125622749328613;6615;Collex-Bossy
7374018;47.19857025146485;8.705010414123535;1323;Wollerau
6528520;46.30638885498047;7.523179054260254;6254;Noble-Contrée
7453809;47.41313934326172;8.272472381591797;4033;Mellingen
7387822;47.10789489746094;7.301048278808594;749;Studen (BE)
6368992;45.843692779541016;9.030887603759766;5268;Vacallo
7397692;46.381378173828125;6.225130081176758;5724;Nyon
7428431;47.13788986206055;8.424551010131836;1707;Risch
7314667;47.40618133544922;8.493660926818848;261;Zürich
7294149;46.19008255004883;9.035564422607422;5002;Bellinzona
6726608;47.04605865478516;9.05685043334961;1632;Glarus
7455672;47.41816329956055;9.361568450927734;3203;St. Gallen
7348871;46.206974029541016;6.189261436462402;6617;Cologny
6934279;46.765533447265625;6.645347595214844;5938;Yverdon-les-Bains
7387674;46.00469207763672;8.961973190307617;5192;Lugano
7427051;46.24890899658203;7.333979606628418;6265;Savièse
7279690;46.18804168701172;6.12252950668335;6628;Lancy
7286666;47.48926544189453;8.710831642150879;230;Winterthur
7308092;47.44945526123047;8.291810989379883;4021;Baden
7318011;47.6834602355957;8.616541862487793;2937;Neuhausen am Rheinfall
7434185;46.51763534545898;6.639143943786621;5586;Lausanne
7428551;47.46281814575195;8.310976028442383;4045;Wettingen
7391123;47.44513702392578;7.69274091720581;2830;Lupsingen
7470785;47.47523880004883;9.108258247375488;3426;Zuzwil (SG)
7456890;47.03860092163086;7.6276702880859375;418;Oberburg
7361017;47.44746017456055;8.46557903289795;96;Regensdorf
7416212;47.17877960205078;8.547588348388672;1701;Baar
7464071;46.67720413208008;6.7246994972229;5661;Boulens
7449261;47.06546401977539;7.095791816711426;723;La Neuveville
7455677;46.83287811279297;9.460697174072266;3722;Domat/Ems
7408407;47.41097640991211;8.449601173400879;249;Unterengstringen
7435064;46.52177047729492;6.630154609680176;5586;Lausanne
7388583;47.325477600097656;8.52845287322998;131;Adliswil
7468260;47.0064697265625;6.95750617980957;6458;Neuchâtel
7430143;46.47654342651367;6.442532062530518;5646;Saint-Prex
7466813;47.0732650756836;7.203896045684815;751;Täuffelen
7413158;47.44419479370117;8.625370025634766;52;Bassersdorf
7414304;46.87350463867188;7.278513431549072;2309;Wünnewil-Flamatt
7411769;46.57086944580078;6.925055503845215;2336;Semsales
7404739;47.15489959716797;7.273398399353027;371;Biel/Bienne
7394449;46.157806396484375;9.02715015411377;5002;Bellinzona
7474607;47.32624435424805;7.899338245391846;4271;Aarburg
7438605;47.44118118286133;7.49759578704834;2784;Dittingen
7468392;46.91056442260742;8.29786491394043;1404;Kerns
7448794;47.40586471557617;8.48266887664795;261;Zürich
7467997;47.136680603027344;7.877231597900391;326;Gondiswil
7398156;47.34946060180664;8.44177532196045;242;Birmensdorf (ZH)
7351211;46.571563720703125;9.931965827941896;3785;La Punt Chamues-ch
7442693;46.55585479736328;6.472108364105225;5634;Echichens
7393779;47.3105354309082;7.697337627410889;2422;Balsthal
7113097;46.39980697631836;6.224734306335449;5724;Nyon
7427725;46.94980239868164;7.442010402679443;351;Bern
7176959;47.36469268798828;7.157273769378662;6808;Clos du Doubs
7466936;46.9712142944336;7.236239433288574;671;Wileroltigen
7408701;47.33063888549805;9.413385391235352;3112;Schwende-Rüte
7146482;47.51346969604492;7.620802402496338;2769;Münchenstein
7428801;45.88030242919922;8.958036422729492;5254;Mendrisio
7451262;47.041748046875;8.326245307922363;1061;Luzern
7407462;46.539493560791016;6.577346324920654;5583;Crissier
6536488;46.236778259277344;6.195746421813965;6616;Collonge-Bellerive
7427750;47.063724517822266;7.41314172744751;310;Rapperswil (BE)
7160245;47.44561004638672;9.50437355041504;3031;Grub (AR)
7348873;47.445091247558594;8.574928283691406;62;Kloten
7450803;47.35643005371094;8.096829414367676;4006;Gränichen
7431333;47.17735290527344;8.889026641845703;1342;Galgenen
6660316;47.2475471496582;7.575312614440918;2554;Riedholz
6395032;46.6180419921875;7.024348735809326;2160;Vuadens
6858565;47.55961990356445;8.492401123046875;58;Glattfelden
7364368;47.46989059448242;9.57974624633789;3235;Rheineck
7079844;47.53752899169922;7.6270623207092285;2770;Muttenz
7244302;46.21847534179688;7.273374080657959;6025;Vétroz
7467237;47.019020080566406;7.642971515655518;406;Hasle bei Burgdorf
6633054;47.500431060791016;8.410006523132324;93;Oberweningen
7383424;47.55065155029297;7.802271842956543;4258;Rheinfelden
7408370;47.017913818359375;7.44141149520874;546;Münchenbuchsee
7387106;47.26164627075195;8.69688606262207;155;Männedorf
7428313;47.49249649047852;8.496959686279297;89;Niederglatt
7408824;46.932350158691406;7.513627052307129;356;Muri bei Bern
7362139;46.51774978637695;6.528232574462891;5643;Préverenges
7041717;47.339603424072266;8.568608283996582;161;Zollikon
6988787;47.22831344604492;8.819448471069336;3340;Rapperswil-Jona
7308152;47.09238815307617;8.05420970916748;1136;Menznau
7467474;47.52146911621094;8.019967079162598;4175;Oeschgen
6836387;46.15120697021485;8.911423683166504;5398;Gambarogno
7400325;47.30978393554688;8.251432418823242;4076;Sarmenstorf
7425298;47.5650520324707;7.592540740966797;2701;Basel
6667463;46.50357437133789;6.698634147644043;5606;Lutry
7452354;47.53239440917969;7.624961853027344;2770;Muttenz
5715086;46.04800415039063;8.906182289123535;5237;Alto Malcantone
7470896;47.25985336303711;7.66048002243042;983;Oberbipp
7427811;47.17137908935547;8.976529121398926;1345;Reichenburg
7348041;46.536598205566406;6.896896839141846;2325;Châtel-Saint-Denis
7452246;46.99979782104492;6.9181294441223145;6458;Neuchâtel
7330210;46.231407165527344;7.363834381103516;6266;Sion
7412581;47.22097396850586;8.828619956970215;3340;Rapperswil-Jona
7408450;47.73878860473633;8.66163158416748;2919;Stetten (SH)
7406162;47.46286392211914;7.808110237121582;2861;Sissach
7387857;47.64334487915039;9.207962989807127;4643;Bottighofen
7430251;47.59307098388672;8.67492961883545;291;Andelfingen
7456612;46.89130401611328;8.250853538513184;1407;Sarnen
7156926;47.1026725769043;7.295675277709961;755;Worben
7100104;47.58108901977539;8.252687454223633;4309;Klingnau
7317845;47.03191757202149;8.287416458129883;1059;Kriens
7451466;47.42655563354492;9.36863613128662;3203;St. Gallen
7369304;47.55506134033203;7.553959846496582;2762;Allschwil
7081683;46.210567474365234;6.151562690734863;6621;Genève
7200446;47.40003204345703;8.623327255249023;191;Dübendorf
7442751;47.235313415527344;9.035269737243652;3341;Gommiswald
7450141;47.37541580200195;8.140049934387207;4207;Schafisheim
7157880;47.24136352539063;8.465532302856445;9;Mettmenstetten
7427398;47.57352828979492;8.717239379882812;214;Dägerlen
7393847;47.05596923828125;8.380474090576172;1063;Meggen
7107429;47.51416015625;8.191177368164062;4110;Remigen
7134176;47.43075180053711;8.577886581420898;66;Opfikon
7467425;47.2009391784668;7.460792064666748;2556;Selzach
7332426;46.19478225708008;6.128692150115967;6621;Genève
7020915;47.50739669799805;9.025561332702637;4776;Tobel-Tägerschen
7153671;46.30573272705078;7.532106876373291;6254;Noble-Contrée
7477431;47.191314697265625;8.533345222473145;1701;Baar
6654570;47.45802307128906;7.6445631980896;2475;Hochwald
7273623;46.38824462890625;6.819744110107422;6155;Saint-Gingolph
7114974;47.14126205444336;8.32753849029541;1023;Ballwil
6565237;47.19717788696289;8.77249526977539;1322;Freienbach
7408244;46.20099258422852;6.155486106872559;6621;Genève
7475836;47.247745513916016;8.772104263305664;153;Hombrechtikon
7374282;46.46080017089844;6.842614650726318;5890;Vevey
7407148;46.39978790283203;6.251355648040772;5725;Prangins
7311875;47.43583679199219;7.66007661819458;2480;Seewen
6883871;47.37680816650391;8.348030090332031;4066;Eggenwil
7416093;46.52656936645508;6.499584674835205;5634;Echichens
7414485;47.40591812133789;9.341934204101562;3203;St. Gallen
7349314;47.15760040283203;8.514293670654297;1711;Zug
7305828;47.44169616699219;7.055722236633301;6783;Courchavon
7469789;45.86376190185547;8.954140663146973;5254;Mendrisio
7311536;47.31216049194336;8.053339004516602;4144;Schöftland
7148024;47.4913215637207;8.552526473999023;72;Winkel
7125784;47.33094787597656;8.815903663635254;121;Wetzikon (ZH)
7459987;46.717166900634766;6.528091430664063;5757;Orbe
7335050;47.313262939453125;8.468513488769531;3;Bonstetten
7346087;47.48593521118164;7.598421096801758;2773;Reinach (BL)
7329217;46.777587890625;7.163191318511963;2206;Marly
7229791;47.07168197631836;8.404279708862305;1331;Küssnacht (SZ)
7346351;47.41852569580078;9.384546279907228;3203;St. Gallen
7299943;47.516700744628906;7.6978278160095215;2831;Pratteln
7417106;47.44487380981445;8.53067684173584;97;Rümlang
7204018;46.864017486572266;9.535412788391112;3901;Chur
7438006;47.21747589111328;7.529138088226318;2601;Solothurn
6667160;47.59630584716797;9.068851470947266;4941;Märstetten
7329570;47.326148986816406;8.48876667022705;13;Stallikon
7467368;47.07215118408203;6.961414813995361;6487;Val-de-Ruz
7471756;47.375244140625;8.142481803894043;4207;Schafisheim
7466508;47.067474365234375;7.302119731903076;306;Lyss
7421958;46.20277404785156;6.157026767730713;6621;Genève
7415881;46.43937301635742;6.911352157592773;5886;Montreux
7390652;47.50835418701172;8.764404296875;230;Winterthur
7468408;47.29001998901367;8.607148170471191;152;Herrliberg
5974068;47.10771942138672;7.245959281921387;732;Bellmund
7467872;47.0258903503418;7.503061294555664;551;Urtenen-Schönbühl
7392133;47.15792846679688;7.344567775726318;390;Meinisberg
7191926;47.3935661315918;8.225751876831055;4205;Othmarsingen
7114072;46.17949676513672;9.014484405517578;5002;Bellinzona
7432120;47.37857437133789;8.566965103149414;261;Zürich
7444358;46.183380126953125;6.122306346893311;6628;Lancy
7452352;46.83757019042969;7.447074890136719;880;Rüeggisberg
7411826;47.38663101196289;8.476806640625;261;Zürich
7446731;47.46596145629883;8.41116714477539;82;Boppelsen
7466723;46.87632751464844;7.639413356781006;617;Niederhünigen
7428706;47.26964569091797;8.01424789428711;4288;Wiliberg
7474183;47.39506530761719;7.623539924621582;2621;Nunningen
7457905;46.8577766418457;9.507911682128906;3901;Chur
7375214;47.33942413330078;8.441978454589844;241;Aesch (ZH)
7468052;47.215702056884766;7.750648021697998;342;Thunstetten
6846438;47.17473602294922;8.111454010009766;1103;Sursee
7420077;47.48373794555664;7.748952865600586;2829;Liestal
5666526;46.91337966918945;8.400948524475098;1511;Wolfenschiessen
6866294;47.48311614990234;7.743081092834473;2829;Liestal
7390724;47.16755294799805;8.5243501663208;1711;Zug
7389112;47.39332962036133;8.069270133972168;4003;Buchs (AG)
7378186;47.49337387084961;8.894672393798828;4551;Aadorf
7367778;47.54327392578125;8.69839096069336;221;Hettlingen
7143318;47.18472671508789;8.371245384216309;4239;Sins
7448575;47.26478576660156;8.930248260498047;120;Wald (ZH)
7448695;47.31898498535156;8.186441421508789;4197;Hallwil
7447646;46.19098281860352;6.107910633087158;6628;Lancy
5687832;47.487281799316406;8.303471565246582;4038;Obersiggenthal
7466053;47.466758728027344;7.854390621185303;2846;Gelterkinden
7387830;46.83627700805664;9.282763481140137;3732;Flims
7308365;47.26946640014648;8.661528587341309;156;Meilen
7407722;46.2747917175293;6.227193355560303;6602;Anières
7390875;47.427581787109375;7.1265974044799805;6771;Alle
7427777;47.52285385131836;8.53530216217041;53;Bülach
7446766;47.00390625;6.954348087310791;6458;Neuchâtel
7153737;47.42901611328125;8.563145637512207;66;Opfikon
7304868;47.04083251953125;9.062908172607422;1632;Glarus
7326954;46.76238632202149;7.208081245422363;2294;Giffers
7427072;47.40451431274414;8.402215957641602;243;Dietikon
7139961;47.26758193969727;8.654520034790039;156;Meilen
7021736;46.283302307128906;6.99633264541626;5409;Ollon
7307514;47.37057876586914;8.554171562194824;261;Zürich
7474187;47.49208831787109;8.705184936523438;230;Winterthur
7311402;47.39522171020508;8.433932304382324;247;Schlieren
7428556;46.21685028076172;6.112555503845215;6643;Vernier
7358679;46.63335800170898;6.972803592681885;2152;Sâles
7358762;47.34760665893555;8.18836498260498;4195;Egliswil
7326098;46.36881637573242;6.7949323654174805;6155;Saint-Gingolph
7418655;46.23159408569336;7.376140117645264;6266;Sion
7321144;46.5117416381836;6.634219646453857;5586;Lausanne
7421752;46.78711700439453;6.638055324554443;5938;Yverdon-les-Bains
7444379;47.358001708984375;9.107592582702637;3396;Neckertal
7437795;47.17190170288086;8.69312572479248;1323;Wollerau
7416601;47.17567825317383;8.943973541259766;1346;Schübelbach
6906106;46.99639129638672;8.619549751281738;1364;Ingenbohl
7431894;47.50913238525391;8.721354484558105;230;Winterthur
7421154;46.51844787597656;6.63010835647583;5586;Lausanne
7415348;46.12605667114258;7.0393571853637695;6219;Vernayaz
7408089;47.53118133544922;9.020064353942873;4711;Affeltrangen
7399061;46.97936248779297;8.338164329528809;1510;Stansstad
7248128;47.52238464355469;7.689113616943359;2831;Pratteln
7476006;47.24735641479492;8.60734748840332;295;Horgen
7398736;46.85865783691406;8.162243843078613;1403;Giswil
7401303;47.20368194580078;8.945294380187988;1347;Tuggen
7387613;47.29731369018555;8.601163864135742;151;Erlenbach (ZH)
7317846;47.43180847167969;9.39366340637207;3203;St. Gallen
7192874;47.46473693847656;9.021509170532228;4761;Sirnach
6713693;47.18659591674805;8.499632835388184;1701;Baar
7467856;47.27389526367188;8.6520357131958;156;Meilen
7467172;47.36382675170898;8.79581356048584;177;Pfäffikon
6743913;47.20033645629883;8.725140571594238;1323;Wollerau
7415721;47.37721633911133;8.64409065246582;193;Fällanden
7408668;47.09099578857422;9.350637435913086;3292;Flums
7308347;47.302879333496094;8.59183120727539;151;Erlenbach (ZH)
6776084;47.200801849365234;7.5716233253479;2534;Zuchwil
7467504;47.35476303100586;8.510359764099121;261;Zürich
7306069;47.33572769165039;8.386159896850586;4074;Oberwil-Lieli
7391019;46.148963928222656;7.140949249267578;6133;Fully
7381416;47.41262435913086;8.53308391571045;261;Zürich
7474556;46.64051055908203;7.054630756378174;2148;Riaz
7159867;47.409610748291016;8.405898094177246;243;Dietikon
7193564;47.47079849243164;9.43656063079834;3214;Mörschwil
7173065;47.39508438110352;9.59544849395752;3255;Rebstein
7155801;47.48423767089844;9.474723815917969;3213;Goldach
7091902;47.38883209228516;8.057489395141602;4001;Aarau
7407555;46.1838493347168;6.138751029968262;6608;Carouge (GE)
7389214;45.872859954833984;8.972015380859375;5254;Mendrisio
6921427;47.46703338623047;7.697244167327881;2478;Nuglar-St. Pantaleon
7369178;47.1487922668457;8.402134895324707;4231;Dietwil
5887777;46.99240112304688;8.310423851013184;1507;Hergiswil (NW)
7456335;46.27389526367188;7.0638508796691895;5405;Gryon
7441368;47.28270721435547;7.407237529754639;681;Belprahon
7448881;47.47615051269531;8.234132766723633;4029;Gebenstorf
6964591;47.41796112060547;8.355324745178223;4040;Spreitenbach
7467676;47.42925643920898;9.376338958740234;3203;St. Gallen
7406899;47.29346466064453;9.53976058959961;3256;Rüthi (SG)
7405154;47.29916763305664;8.393263816833496;4071;Jonen
7455688;47.20299530029297;8.430488586425781;1702;Cham
7448908;47.40140151977539;9.63974952697754;3238;Widnau
6547353;47.50963592529297;8.466590881347656;88;Neerach
7408714;46.57741928100586;6.868279457092285;2335;Saint-Martin (FR)
7348821;46.5117416381836;6.634219646453857;5586;Lausanne
6780734;47.467281341552734;9.587838172912598;3235;Rheineck
7380804;47.22544097900391;8.255925178527832;1030;Hitzkirch
6453935;47.2796745300293;7.391181468963623;700;Moutier
7403056;47.477821350097656;7.510829925537109;2476;Hofstetten-Flüh
7442762;47.33057022094727;8.052165985107422;4009;Muhen
7453558;47.03932189941406;8.351905822753906;1061;Luzern
7096108;47.06046295166016;8.306999206542969;1061;Luzern
7373883;47.36991882324219;8.545300483703613;261;Zürich
7438268;47.19575881958008;8.484529495239258;1708;Steinhausen
7083574;46.440677642822266;6.895339488983154;5886;Montreux
7408457;47.56147766113281;8.06170654296875;4170;Laufenburg
6351693;46.539527893066406;6.576162338256836;5583;Crissier
7427632;47.090179443359375;8.27917766571045;1024;Emmen
6211113;47.18939208984375;8.734724998474121;1321;Feusisberg
7134695;46.97202682495117;8.444395065307617;1502;Buochs
7444151;47.48275375366211;8.449005126953125;86;Dielsdorf
6776992;46.73670959472656;7.292017936706543;2299;Plaffeien
7394354;47.31867599487305;8.18763256072998;4192;Boniswil
7348703;47.35476303100586;8.510359764099121;261;Zürich
7444246;46.30279159545898;7.523154258728027;6254;Noble-Contrée
7467181;46.7861557006836;6.631619453430176;5938;Yverdon-les-Bains
7096851;47.35676193237305;8.528594970703125;261;Zürich
7388094;46.52119064331055;6.61853551864624;5586;Lausanne
7348096;47.50224304199219;7.62234354019165;2763;Arlesheim
7316038;46.17065048217773;8.932317733764648;5002;Bellinzona
7339119;46.46101760864258;7.099566459655762;5841;Château-d'Oex
7273101;47.4283561706543;7.475758075714111;2791;Röschenz
7192437;47.56221389770508;8.681325912475586;31;Henggart
7299667;47.27180099487305;7.943892955780029;4274;Brittnau
7331268;47.27849578857422;8.843472480773926;113;Dürnten
7428161;47.66339874267578;8.987299919128418;4864;Steckborn
7447908;47.56469345092773;7.56186580657959;2701;Basel
7195235;47.32624435424805;7.899338245391846;4271;Aarburg
7411517;47.24003982543945;8.727568626403809;158;Stäfa
7096448;47.53724670410156;9.18257999420166;4506;Sulgen
7458406;45.83599472045898;9.03086757659912;5250;Chiasso
7451969;46.53224563598633;6.604605674743652;5589;Prilly
4617813;46.91425323486328;7.196559906005859;2262;Gurmels
7367709;47.286529541015625;8.194758415222168;4132;Birrwil
7351820;46.19984817504883;6.892393112182617;6157;Val-d'Illiez
7412616;46.04609298706055;8.98410701751709;5192;Lugano
7408634;47.40155792236328;8.533530235290527;261;Zürich
7390045;46.39980697631836;6.224734306335449;5724;Nyon
7371909;46.6119384765625;9.176552772521973;3603;Vals
7095967;47.49459838867188;8.742523193359375;230;Winterthur
7411814;47.1246337890625;7.275213718414307;733;Brügg
7365131;46.94340133666992;7.398078918457031;351;Bern
7234416;47.043418884277344;8.3607759475708;1063;Meggen
7367551;47.40027618408203;9.64139175415039;3238;Widnau
7408919;47.35610961914063;8.552998542785645;261;Zürich
7386829;47.48006820678711;8.524243354797363;92;Oberglatt
7378481;47.17285919189453;8.973553657531738;1345;Reichenburg
7377548;47.46475982666016;9.061700820922852;3427;Wil (SG)
7408823;46.813026428222656;6.939114093780518;5822;Payerne
7305819;47.49551010131836;8.546393394470215;72;Winkel
7211474;47.521026611328125;8.325337409973145;4312;Lengnau (AG)
6087035;47.43220901489258;8.242998123168945;4093;Birrhard
7355488;47.15817260742188;7.594496726989746;2530;Recherswil
7449250;46.95970153808594;7.457724571228027;351;Bern
7453373;47.04199600219727;8.368749618530273;1063;Meggen
7477216;47.28621673583984;8.485529899597168;1;Aeugst am Albis
7172852;47.47789001464844;9.160627365112305;3423;Niederhelfenschwil
7461589;47.44740295410156;8.357135772705078;4048;Würenlos
6342423;47.36216735839844;8.700311660766602;198;Uster
7293103;47.44586944580078;9.412641525268556;3203;St. Gallen
7428362;47.27926635742188;7.525844573974609;2430;Welschenrohr-Gänsbrunnen
4758489;47.15021514892578;8.889097213745117;1342;Galgenen
7474518;47.49979782104492;9.021251678466797;4716;Bettwiesen
7347673;47.47258377075195;9.506673812866213;3215;Rorschach
7387104;47.41460037231445;8.622008323669434;54;Dietlikon
7302509;47.03839874267578;8.61708927154541;1373;Steinen
7204172;47.34663772583008;7.914158344268799;2581;Olten
